{"type":"FeatureCollection","crs":{"type":"name","properties":{"name":"EPSG:4326"}},"features":[{"type":"Feature","id":1,"geometry":{"type":"Point","coordinates":[-122.9267005,44.0467818]},"properties":{"FID":1,"stop_numbe":1,"stop_name":"E/S of 58th N of Main","latitude":44.0467818,"longitude":-122.9267005,"routes":11}},{"type":"Feature","id":2,"geometry":{"type":"Point","coordinates":[-122.9262433,44.0494533]},"properties":{"FID":2,"stop_numbe":2,"stop_name":"E/S of 58th S of D","latitude":44.0494533,"longitude":-122.9262433,"routes":11}},{"type":"Feature","id":3,"geometry":{"type":"Point","coordinates":[-122.9262111,44.0522628]},"properties":{"FID":3,"stop_numbe":4,"stop_name":"E/S of 58th S of Thurston Rd","latitude":44.0522628,"longitude":-122.9262111,"routes":11}},{"type":"Feature","id":4,"geometry":{"type":"Point","coordinates":[-122.9165568,44.0529601]},"properties":{"FID":4,"stop_numbe":6,"stop_name":"S/S of Thurston W of 64th","latitude":44.0529601,"longitude":-122.9165568,"routes":11}},{"type":"Feature","id":5,"geometry":{"type":"Point","coordinates":[-122.9131931,44.0526639]},"properties":{"FID":5,"stop_numbe":7,"stop_name":"S/S of Thurston E of 65th","latitude":44.0526639,"longitude":-122.9131931,"routes":11}},{"type":"Feature","id":6,"geometry":{"type":"Point","coordinates":[-122.9112812,44.0532895]},"properties":{"FID":6,"stop_numbe":8,"stop_name":"S/S of Thurston W of 66th","latitude":44.0532895,"longitude":-122.9112812,"routes":11}},{"type":"Feature","id":7,"geometry":{"type":"Point","coordinates":[-122.9079614,44.0536253]},"properties":{"FID":7,"stop_numbe":9,"stop_name":"S/S of Thurston W of 67th","latitude":44.0536253,"longitude":-122.9079614,"routes":11}},{"type":"Feature","id":8,"geometry":{"type":"Point","coordinates":[-122.9056354,44.0536203]},"properties":{"FID":8,"stop_numbe":10,"stop_name":"S/S of Thurston E of 68th","latitude":44.0536203,"longitude":-122.9056354,"routes":11}},{"type":"Feature","id":9,"geometry":{"type":"Point","coordinates":[-122.9042377,44.0526497]},"properties":{"FID":9,"stop_numbe":11,"stop_name":"W/S of 69th S of G","latitude":44.0526497,"longitude":-122.9042377,"routes":11}},{"type":"Feature","id":10,"geometry":{"type":"Point","coordinates":[-122.9042049,44.0495259]},"properties":{"FID":10,"stop_numbe":12,"stop_name":"W/S of 69th N of D","latitude":44.0495259,"longitude":-122.9042049,"routes":11}},{"type":"Feature","id":11,"geometry":{"type":"Point","coordinates":[-122.9039425,44.0462416]},"properties":{"FID":11,"stop_numbe":14,"stop_name":"W/S of 69th N of Main St","latitude":44.0462416,"longitude":-122.9039425,"routes":11}},{"type":"Feature","id":12,"geometry":{"type":"Point","coordinates":[-122.9073483,44.0456964]},"properties":{"FID":12,"stop_numbe":15,"stop_name":"N/S of Main W of 68th","latitude":44.0456964,"longitude":-122.9073483,"routes":0}},{"type":"Feature","id":13,"geometry":{"type":"Point","coordinates":[-122.9116356,44.045698]},"properties":{"FID":13,"stop_numbe":16,"stop_name":"N/S of Main W of 66th","latitude":44.045698,"longitude":-122.9116356,"routes":0}},{"type":"Feature","id":14,"geometry":{"type":"Point","coordinates":[-122.9182198,44.0457293]},"properties":{"FID":14,"stop_numbe":17,"stop_name":"N/S of Main E of 62nd Pl","latitude":44.0457293,"longitude":-122.9182198,"routes":0}},{"type":"Feature","id":15,"geometry":{"type":"Point","coordinates":[-122.92142,44.0457426]},"properties":{"FID":15,"stop_numbe":18,"stop_name":"N/S of Main W of 60th Pl","latitude":44.0457426,"longitude":-122.92142,"routes":0}},{"type":"Feature","id":16,"geometry":{"type":"Point","coordinates":[-122.9275848,44.0458353]},"properties":{"FID":16,"stop_numbe":19,"stop_name":"N/S of Main W of 58th","latitude":44.0458353,"longitude":-122.9275848,"routes":0}},{"type":"Feature","id":17,"geometry":{"type":"Point","coordinates":[-122.9343267,44.0455628]},"properties":{"FID":17,"stop_numbe":20,"stop_name":"S/S of Main E of 54th","latitude":44.0455628,"longitude":-122.9343267,"routes":11}},{"type":"Feature","id":18,"geometry":{"type":"Point","coordinates":[-122.9363411,44.0457941]},"properties":{"FID":18,"stop_numbe":21,"stop_name":"N/S of Main W of 54th","latitude":44.0457941,"longitude":-122.9363411,"routes":11}},{"type":"Feature","id":19,"geometry":{"type":"Point","coordinates":[-122.9377397,44.0456198]},"properties":{"FID":19,"stop_numbe":23,"stop_name":"S/S of Main E of 52nd Pl","latitude":44.0456198,"longitude":-122.9377397,"routes":11}},{"type":"Feature","id":20,"geometry":{"type":"Point","coordinates":[-122.9383356,44.0457911]},"properties":{"FID":20,"stop_numbe":24,"stop_name":"N/S of Main E of 52nd","latitude":44.0457911,"longitude":-122.9383356,"routes":11}},{"type":"Feature","id":21,"geometry":{"type":"Point","coordinates":[-122.9428226,44.045639]},"properties":{"FID":21,"stop_numbe":25,"stop_name":"S/S of Main E of 51st","latitude":44.045639,"longitude":-122.9428226,"routes":11}},{"type":"Feature","id":22,"geometry":{"type":"Point","coordinates":[-122.9434105,44.0458027]},"properties":{"FID":22,"stop_numbe":26,"stop_name":"N/S of Main E of 50th","latitude":44.0458027,"longitude":-122.9434105,"routes":11}},{"type":"Feature","id":23,"geometry":{"type":"Point","coordinates":[-122.9478211,44.0458213]},"properties":{"FID":23,"stop_numbe":28,"stop_name":"N/S of Main W of 49th","latitude":44.0458213,"longitude":-122.9478211,"routes":11}},{"type":"Feature","id":24,"geometry":{"type":"Point","coordinates":[-122.9511793,44.0456692]},"properties":{"FID":24,"stop_numbe":29,"stop_name":"S/S of Main W of 48th","latitude":44.0456692,"longitude":-122.9511793,"routes":11}},{"type":"Feature","id":25,"geometry":{"type":"Point","coordinates":[-122.9513107,44.0458334]},"properties":{"FID":25,"stop_numbe":30,"stop_name":"N/S of Main W of 48th","latitude":44.0458334,"longitude":-122.9513107,"routes":11}},{"type":"Feature","id":26,"geometry":{"type":"Point","coordinates":[-122.9577988,44.0458488]},"properties":{"FID":26,"stop_numbe":32,"stop_name":"N/S of Main E of 44th","latitude":44.0458488,"longitude":-122.9577988,"routes":11}},{"type":"Feature","id":27,"geometry":{"type":"Point","coordinates":[-122.9570527,44.0456891]},"properties":{"FID":27,"stop_numbe":33,"stop_name":"S/S of Main E of 44th","latitude":44.0456891,"longitude":-122.9570527,"routes":11}},{"type":"Feature","id":28,"geometry":{"type":"Point","coordinates":[-122.9616616,44.0457041]},"properties":{"FID":28,"stop_numbe":35,"stop_name":"S/S of Main E of 42nd","latitude":44.0457041,"longitude":-122.9616616,"routes":11}},{"type":"Feature","id":29,"geometry":{"type":"Point","coordinates":[-122.9640583,44.0458456]},"properties":{"FID":29,"stop_numbe":36,"stop_name":"N/S of Main W of 42nd","latitude":44.0458456,"longitude":-122.9640583,"routes":11}},{"type":"Feature","id":30,"geometry":{"type":"Point","coordinates":[-122.9667746,44.0457186]},"properties":{"FID":30,"stop_numbe":37,"stop_name":"S/S of Main W of 41st","latitude":44.0457186,"longitude":-122.9667746,"routes":11}},{"type":"Feature","id":31,"geometry":{"type":"Point","coordinates":[-122.9672738,44.0458917]},"properties":{"FID":31,"stop_numbe":38,"stop_name":"N/S of Main W of 41st","latitude":44.0458917,"longitude":-122.9672738,"routes":11}},{"type":"Feature","id":32,"geometry":{"type":"Point","coordinates":[-122.9714093,44.0457303]},"properties":{"FID":32,"stop_numbe":39,"stop_name":"S/S of Main E of 38th","latitude":44.0457303,"longitude":-122.9714093,"routes":11}},{"type":"Feature","id":33,"geometry":{"type":"Point","coordinates":[-122.9709199,44.0458507]},"properties":{"FID":33,"stop_numbe":40,"stop_name":"N/S of Main E of 38th","latitude":44.0458507,"longitude":-122.9709199,"routes":11}},{"type":"Feature","id":34,"geometry":{"type":"Point","coordinates":[-122.9765887,44.0458726]},"properties":{"FID":34,"stop_numbe":41,"stop_name":"N/S of Main W of 35th","latitude":44.0458726,"longitude":-122.9765887,"routes":11}},{"type":"Feature","id":35,"geometry":{"type":"Point","coordinates":[-122.9764588,44.0457458]},"properties":{"FID":35,"stop_numbe":42,"stop_name":"S/S of Main W of 35th","latitude":44.0457458,"longitude":-122.9764588,"routes":11}},{"type":"Feature","id":36,"geometry":{"type":"Point","coordinates":[-122.9800876,44.0457541]},"properties":{"FID":36,"stop_numbe":43,"stop_name":"S/S of Main E of 32nd","latitude":44.0457541,"longitude":-122.9800876,"routes":11}},{"type":"Feature","id":37,"geometry":{"type":"Point","coordinates":[-122.9799151,44.0459166]},"properties":{"FID":37,"stop_numbe":44,"stop_name":"N/S of Main E of 32nd","latitude":44.0459166,"longitude":-122.9799151,"routes":11}},{"type":"Feature","id":38,"geometry":{"type":"Point","coordinates":[-122.9860549,44.0457763]},"properties":{"FID":38,"stop_numbe":45,"stop_name":"S/S of Main E of 28th","latitude":44.0457763,"longitude":-122.9860549,"routes":11}},{"type":"Feature","id":39,"geometry":{"type":"Point","coordinates":[-122.9864018,44.0459226]},"properties":{"FID":39,"stop_numbe":46,"stop_name":"N/S of Main E of 28th","latitude":44.0459226,"longitude":-122.9864018,"routes":11}},{"type":"Feature","id":40,"geometry":{"type":"Point","coordinates":[-122.9903127,44.0457543]},"properties":{"FID":40,"stop_numbe":47,"stop_name":"S/S of Main E of 23rd","latitude":44.0457543,"longitude":-122.9903127,"routes":11}},{"type":"Feature","id":41,"geometry":{"type":"Point","coordinates":[-122.9903345,44.0459485]},"properties":{"FID":41,"stop_numbe":48,"stop_name":"N/S of Main E of 23rd","latitude":44.0459485,"longitude":-122.9903345,"routes":11}},{"type":"Feature","id":42,"geometry":{"type":"Point","coordinates":[-122.9929385,44.0459647]},"properties":{"FID":42,"stop_numbe":49,"stop_name":"N/S of Main W of 23rd","latitude":44.0459647,"longitude":-122.9929385,"routes":11}},{"type":"Feature","id":43,"geometry":{"type":"Point","coordinates":[-122.9938428,44.0457601]},"properties":{"FID":43,"stop_numbe":50,"stop_name":"S/S of Main E of 21st","latitude":44.0457601,"longitude":-122.9938428,"routes":11}},{"type":"Feature","id":44,"geometry":{"type":"Point","coordinates":[-122.9953835,44.0459707]},"properties":{"FID":44,"stop_numbe":51,"stop_name":"N/S of Main E of 20th","latitude":44.0459707,"longitude":-122.9953835,"routes":11}},{"type":"Feature","id":45,"geometry":{"type":"Point","coordinates":[-122.9984428,44.0459151]},"properties":{"FID":45,"stop_numbe":52,"stop_name":"N/S of Main E of 18th","latitude":44.0459151,"longitude":-122.9984428,"routes":11}},{"type":"Feature","id":46,"geometry":{"type":"Point","coordinates":[-123.0025109,44.0459396]},"properties":{"FID":46,"stop_numbe":53,"stop_name":"N/S of Main W of 16th","latitude":44.0459396,"longitude":-123.0025109,"routes":11}},{"type":"Feature","id":47,"geometry":{"type":"Point","coordinates":[-123.0058501,44.0459608]},"properties":{"FID":47,"stop_numbe":54,"stop_name":"N/S of Main W of 14th","latitude":44.0459608,"longitude":-123.0058501,"routes":11}},{"type":"Feature","id":48,"geometry":{"type":"Point","coordinates":[-123.008403,44.0459917]},"properties":{"FID":48,"stop_numbe":55,"stop_name":"N/S of Main E of 12th","latitude":44.0459917,"longitude":-123.008403,"routes":11}},{"type":"Feature","id":49,"geometry":{"type":"Point","coordinates":[-123.011117,44.046009]},"properties":{"FID":49,"stop_numbe":56,"stop_name":"N/S of Main E of 10th","latitude":44.046009,"longitude":-123.011117,"routes":11}},{"type":"Feature","id":50,"geometry":{"type":"Point","coordinates":[-123.0250794,44.046215]},"properties":{"FID":50,"stop_numbe":57,"stop_name":"N/S of Main W of Mill","latitude":44.046215,"longitude":-123.0250794,"routes":85}},{"type":"Feature","id":51,"geometry":{"type":"Point","coordinates":[-123.0041213,44.0539828]},"properties":{"FID":51,"stop_numbe":58,"stop_name":"W/S of Mohawk N of G","latitude":44.0539828,"longitude":-123.0041213,"routes":17}},{"type":"Feature","id":52,"geometry":{"type":"Point","coordinates":[-123.0050856,44.0444158]},"properties":{"FID":52,"stop_numbe":59,"stop_name":"S/S of South A E of 14th","latitude":44.0444158,"longitude":-123.0050856,"routes":11}},{"type":"Feature","id":53,"geometry":{"type":"Point","coordinates":[-122.9991027,44.059527]},"properties":{"FID":53,"stop_numbe":60,"stop_name":"S/S of Olympic E of Mohawk","latitude":44.059527,"longitude":-122.9991027,"routes":18}},{"type":"Feature","id":54,"geometry":{"type":"Point","coordinates":[-122.9961045,44.0597624]},"properties":{"FID":54,"stop_numbe":61,"stop_name":"N/S of Olympic E of 18th","latitude":44.0597624,"longitude":-122.9961045,"routes":0}},{"type":"Feature","id":55,"geometry":{"type":"Point","coordinates":[-122.9958364,44.0595764]},"properties":{"FID":55,"stop_numbe":62,"stop_name":"S/S of Olympic E of 18th","latitude":44.0595764,"longitude":-122.9958364,"routes":18}},{"type":"Feature","id":56,"geometry":{"type":"Point","coordinates":[-122.9920793,44.0597431]},"properties":{"FID":56,"stop_numbe":64,"stop_name":"N/S of Olympic W of 23rd","latitude":44.0597431,"longitude":-122.9920793,"routes":17}},{"type":"Feature","id":57,"geometry":{"type":"Point","coordinates":[-122.9885133,44.0595676]},"properties":{"FID":57,"stop_numbe":66,"stop_name":"S/S of Olympic W of 28th","latitude":44.0595676,"longitude":-122.9885133,"routes":18}},{"type":"Feature","id":58,"geometry":{"type":"Point","coordinates":[-122.9861631,44.0644236]},"properties":{"FID":58,"stop_numbe":67,"stop_name":"S/S of Marcola Rd. W of 28th","latitude":44.0644236,"longitude":-122.9861631,"routes":17}},{"type":"Feature","id":59,"geometry":{"type":"Point","coordinates":[-122.9877362,44.0645364]},"properties":{"FID":59,"stop_numbe":68,"stop_name":"E/S of 28th N of R","latitude":44.0645364,"longitude":-122.9877362,"routes":18}},{"type":"Feature","id":60,"geometry":{"type":"Point","coordinates":[-122.993032,44.0596233]},"properties":{"FID":60,"stop_numbe":69,"stop_name":"S/S of Olympic E of 21st","latitude":44.0596233,"longitude":-122.993032,"routes":18}},{"type":"Feature","id":61,"geometry":{"type":"Point","coordinates":[-122.9899614,44.0597332]},"properties":{"FID":61,"stop_numbe":70,"stop_name":"N/S of Olympic E of 23rd","latitude":44.0597332,"longitude":-122.9899614,"routes":17}},{"type":"Feature","id":62,"geometry":{"type":"Point","coordinates":[-123.0450436,44.0699457]},"properties":{"FID":62,"stop_numbe":83,"stop_name":"N/S of Harlow Road W of Beverly","latitude":44.0699457,"longitude":-123.0450436,"routes":12}},{"type":"Feature","id":63,"geometry":{"type":"Point","coordinates":[-123.0447709,44.0698343]},"properties":{"FID":63,"stop_numbe":84,"stop_name":"S/S of Harlow Rd W of Beverly","latitude":44.0698343,"longitude":-123.0447709,"routes":12}},{"type":"Feature","id":64,"geometry":{"type":"Point","coordinates":[-123.0415288,44.0805651]},"properties":{"FID":64,"stop_numbe":91,"stop_name":"E/S of Gateway N of Gateway Lp","latitude":44.0805651,"longitude":-123.0415288,"routes":12}},{"type":"Feature","id":65,"geometry":{"type":"Point","coordinates":[-123.0417602,44.0805772]},"properties":{"FID":65,"stop_numbe":92,"stop_name":"W/S of Gateway N of Gateway Lp","latitude":44.0805772,"longitude":-123.0417602,"routes":12}},{"type":"Feature","id":66,"geometry":{"type":"Point","coordinates":[-123.0417299,44.0825574]},"properties":{"FID":66,"stop_numbe":93,"stop_name":"W/S of Gateway S of Beltline","latitude":44.0825574,"longitude":-123.0417299,"routes":12}},{"type":"Feature","id":67,"geometry":{"type":"Point","coordinates":[-123.1549968,44.085055]},"properties":{"FID":67,"stop_numbe":9844,"stop_name":"E/S of Hwy 99 N of Barger Dr.","latitude":44.085055,"longitude":-123.1549968,"routes":95}},{"type":"Feature","id":68,"geometry":{"type":"Point","coordinates":[-123.0414886,44.0824708]},"properties":{"FID":68,"stop_numbe":94,"stop_name":"E/S of Gateway N of Kruse","latitude":44.0824708,"longitude":-123.0414886,"routes":12}},{"type":"Feature","id":69,"geometry":{"type":"Point","coordinates":[-123.0192667,44.0631627]},"properties":{"FID":69,"stop_numbe":127,"stop_name":"E/S of 5th N of Q","latitude":44.0631627,"longitude":-123.0192667,"routes":17}},{"type":"Feature","id":70,"geometry":{"type":"Point","coordinates":[-123.0192485,44.0660772]},"properties":{"FID":70,"stop_numbe":129,"stop_name":"E/S of 5th S of T","latitude":44.0660772,"longitude":-123.0192485,"routes":17}},{"type":"Feature","id":71,"geometry":{"type":"Point","coordinates":[-123.01925,44.068765]},"properties":{"FID":71,"stop_numbe":131,"stop_name":"E/S of 5th S of V","latitude":44.068765,"longitude":-123.01925,"routes":17}},{"type":"Feature","id":72,"geometry":{"type":"Point","coordinates":[-123.005919,44.0625261]},"properties":{"FID":72,"stop_numbe":143,"stop_name":"N/S of Q E of 12th","latitude":44.0625261,"longitude":-123.005919,"routes":18}},{"type":"Feature","id":73,"geometry":{"type":"Point","coordinates":[-123.0098424,44.0625387]},"properties":{"FID":73,"stop_numbe":144,"stop_name":"N/S of Q W of 11th","latitude":44.0625387,"longitude":-123.0098424,"routes":18}},{"type":"Feature","id":74,"geometry":{"type":"Point","coordinates":[-123.0124198,44.0625378]},"properties":{"FID":74,"stop_numbe":145,"stop_name":"N/S of Q W of 10th","latitude":44.0625378,"longitude":-123.0124198,"routes":18}},{"type":"Feature","id":75,"geometry":{"type":"Point","coordinates":[-123.0167765,44.0622921]},"properties":{"FID":75,"stop_numbe":146,"stop_name":"N/S of Q W of 7th","latitude":44.0622921,"longitude":-123.0167765,"routes":18}},{"type":"Feature","id":76,"geometry":{"type":"Point","coordinates":[-122.9942753,44.0576052]},"properties":{"FID":76,"stop_numbe":147,"stop_name":"E/S of 21st N of L","latitude":44.0576052,"longitude":-122.9942753,"routes":13}},{"type":"Feature","id":77,"geometry":{"type":"Point","coordinates":[-122.9946912,44.0559851]},"properties":{"FID":77,"stop_numbe":160,"stop_name":"S/S of Centennial W of 21st","latitude":44.0559851,"longitude":-122.9946912,"routes":13}},{"type":"Feature","id":78,"geometry":{"type":"Point","coordinates":[-122.9975575,44.0560715]},"properties":{"FID":78,"stop_numbe":162,"stop_name":"S/S of Centennial E of 18th","latitude":44.0560715,"longitude":-122.9975575,"routes":13}},{"type":"Feature","id":79,"geometry":{"type":"Point","coordinates":[-123.0001673,44.0561184]},"properties":{"FID":79,"stop_numbe":164,"stop_name":"S/S of Centennial E of 16th","latitude":44.0561184,"longitude":-123.0001673,"routes":13}},{"type":"Feature","id":80,"geometry":{"type":"Point","coordinates":[-123.0035789,44.0561743]},"properties":{"FID":80,"stop_numbe":166,"stop_name":"S/S of Centennial W of Market","latitude":44.0561743,"longitude":-123.0035789,"routes":13}},{"type":"Feature","id":81,"geometry":{"type":"Point","coordinates":[-123.0040765,44.0562574]},"properties":{"FID":81,"stop_numbe":167,"stop_name":"N/S of Centennial W of Market","latitude":44.0562574,"longitude":-123.0040765,"routes":13}},{"type":"Feature","id":82,"geometry":{"type":"Point","coordinates":[-123.0085598,44.0562167]},"properties":{"FID":82,"stop_numbe":168,"stop_name":"S/S of Centennial E of 12th","latitude":44.0562167,"longitude":-123.0085598,"routes":13}},{"type":"Feature","id":83,"geometry":{"type":"Point","coordinates":[-123.0093517,44.0562702]},"properties":{"FID":83,"stop_numbe":169,"stop_name":"N/S of Centennial W of 12th","latitude":44.0562702,"longitude":-123.0093517,"routes":13}},{"type":"Feature","id":84,"geometry":{"type":"Point","coordinates":[-123.0115501,44.056193]},"properties":{"FID":84,"stop_numbe":170,"stop_name":"S/S of Centennial E of 10th","latitude":44.056193,"longitude":-123.0115501,"routes":13}},{"type":"Feature","id":85,"geometry":{"type":"Point","coordinates":[-123.0138047,44.0562886]},"properties":{"FID":85,"stop_numbe":171,"stop_name":"N/S of Centennial W of 10th","latitude":44.0562886,"longitude":-123.0138047,"routes":13}},{"type":"Feature","id":86,"geometry":{"type":"Point","coordinates":[-123.0163733,44.0562044]},"properties":{"FID":86,"stop_numbe":172,"stop_name":"S/S of Centennial E of 7th","latitude":44.0562044,"longitude":-123.0163733,"routes":13}},{"type":"Feature","id":87,"geometry":{"type":"Point","coordinates":[-123.0170371,44.0563179]},"properties":{"FID":87,"stop_numbe":173,"stop_name":"N/S of Centennial W of 7th","latitude":44.0563179,"longitude":-123.0170371,"routes":13}},{"type":"Feature","id":88,"geometry":{"type":"Point","coordinates":[-123.020531,44.0562915]},"properties":{"FID":88,"stop_numbe":174,"stop_name":"N/S of Centennial W of 5th","latitude":44.0562915,"longitude":-123.020531,"routes":13}},{"type":"Feature","id":89,"geometry":{"type":"Point","coordinates":[-123.0225293,44.0563029]},"properties":{"FID":89,"stop_numbe":175,"stop_name":"S/S of Centennial E of Custom","latitude":44.0563029,"longitude":-123.0225293,"routes":13}},{"type":"Feature","id":90,"geometry":{"type":"Point","coordinates":[-123.0255872,44.0571479]},"properties":{"FID":90,"stop_numbe":176,"stop_name":"N/S of Centennial E of 1st","latitude":44.0571479,"longitude":-123.0255872,"routes":13}},{"type":"Feature","id":91,"geometry":{"type":"Point","coordinates":[-123.0252498,44.0569156]},"properties":{"FID":91,"stop_numbe":177,"stop_name":"S/S of Centennial W of Pioneer Pkwy W","latitude":44.0569156,"longitude":-123.0252498,"routes":13}},{"type":"Feature","id":92,"geometry":{"type":"Point","coordinates":[-123.0340354,44.0572538]},"properties":{"FID":92,"stop_numbe":178,"stop_name":"N/S of Centennial W of Prescott","latitude":44.0572538,"longitude":-123.0340354,"routes":13}},{"type":"Feature","id":93,"geometry":{"type":"Point","coordinates":[-123.0328944,44.0571951]},"properties":{"FID":93,"stop_numbe":179,"stop_name":"S/S of Centennial E of Prescott","latitude":44.0571951,"longitude":-123.0328944,"routes":13}},{"type":"Feature","id":94,"geometry":{"type":"Point","coordinates":[-123.0382815,44.0562008]},"properties":{"FID":94,"stop_numbe":180,"stop_name":"N/S of Centennial W of Rainbow","latitude":44.0562008,"longitude":-123.0382815,"routes":13}},{"type":"Feature","id":95,"geometry":{"type":"Point","coordinates":[-123.0382322,44.0560014]},"properties":{"FID":95,"stop_numbe":181,"stop_name":"S/S of Centennial W of Rainbow Dr","latitude":44.0560014,"longitude":-123.0382322,"routes":13}},{"type":"Feature","id":96,"geometry":{"type":"Point","coordinates":[-123.0422375,44.0556428]},"properties":{"FID":96,"stop_numbe":182,"stop_name":"S/S of Centennial E of Aspen","latitude":44.0556428,"longitude":-123.0422375,"routes":13}},{"type":"Feature","id":97,"geometry":{"type":"Point","coordinates":[-123.0430462,44.0558585]},"properties":{"FID":97,"stop_numbe":183,"stop_name":"N/S of Centennial W of Aspen","latitude":44.0558585,"longitude":-123.0430462,"routes":13}},{"type":"Feature","id":98,"geometry":{"type":"Point","coordinates":[-123.0473161,44.0557961]},"properties":{"FID":98,"stop_numbe":184,"stop_name":"S/S of Centennial E of Anderson","latitude":44.0557961,"longitude":-123.0473161,"routes":13}},{"type":"Feature","id":99,"geometry":{"type":"Point","coordinates":[-123.0476166,44.0559101]},"properties":{"FID":99,"stop_numbe":185,"stop_name":"N/S of Centennial E of Anderson","latitude":44.0559101,"longitude":-123.0476166,"routes":13}},{"type":"Feature","id":100,"geometry":{"type":"Point","coordinates":[-123.0001453,44.0590727]},"properties":{"FID":100,"stop_numbe":186,"stop_name":"W/S of Mohawk S of Olympic","latitude":44.0590727,"longitude":-123.0001453,"routes":0}},{"type":"Feature","id":101,"geometry":{"type":"Point","coordinates":[-123.0018971,44.0568439]},"properties":{"FID":101,"stop_numbe":187,"stop_name":"W/S of Mohawk S of M","latitude":44.0568439,"longitude":-123.0018971,"routes":0}},{"type":"Feature","id":102,"geometry":{"type":"Point","coordinates":[-123.0041968,44.0535618]},"properties":{"FID":102,"stop_numbe":189,"stop_name":"E/S of Mohawk N of G","latitude":44.0535618,"longitude":-123.0041968,"routes":18}},{"type":"Feature","id":103,"geometry":{"type":"Point","coordinates":[-123.0030072,44.0550191]},"properties":{"FID":103,"stop_numbe":190,"stop_name":"E/S of Mohawk N of Modoc","latitude":44.0550191,"longitude":-123.0030072,"routes":18}},{"type":"Feature","id":104,"geometry":{"type":"Point","coordinates":[-123.0017999,44.0565762]},"properties":{"FID":104,"stop_numbe":191,"stop_name":"E/S of Mohawk N of Centennial","latitude":44.0565762,"longitude":-123.0017999,"routes":18}},{"type":"Feature","id":105,"geometry":{"type":"Point","coordinates":[-123.00071,44.0580621]},"properties":{"FID":105,"stop_numbe":192,"stop_name":"E/S of Mohawk N of M","latitude":44.0580621,"longitude":-123.00071,"routes":18}},{"type":"Feature","id":106,"geometry":{"type":"Point","coordinates":[-123.0071081,44.0523728]},"properties":{"FID":106,"stop_numbe":194,"stop_name":"N/S of G E of 12th","latitude":44.0523728,"longitude":-123.0071081,"routes":17}},{"type":"Feature","id":107,"geometry":{"type":"Point","coordinates":[-123.0086606,44.0522376]},"properties":{"FID":107,"stop_numbe":195,"stop_name":"S/S of G E of 12th","latitude":44.0522376,"longitude":-123.0086606,"routes":18}},{"type":"Feature","id":108,"geometry":{"type":"Point","coordinates":[-123.0121546,44.0523476]},"properties":{"FID":108,"stop_numbe":196,"stop_name":"N/S of G E of 10th","latitude":44.0523476,"longitude":-123.0121546,"routes":17}},{"type":"Feature","id":109,"geometry":{"type":"Point","coordinates":[-123.0170488,44.0523528]},"properties":{"FID":109,"stop_numbe":197,"stop_name":"N/S of G W of 7th","latitude":44.0523528,"longitude":-123.0170488,"routes":17}},{"type":"Feature","id":110,"geometry":{"type":"Point","coordinates":[-123.0170683,44.0523126]},"properties":{"FID":110,"stop_numbe":198,"stop_name":"S/S of G W of 7th","latitude":44.0523126,"longitude":-123.0170683,"routes":18}},{"type":"Feature","id":111,"geometry":{"type":"Point","coordinates":[-123.0194363,44.0602024]},"properties":{"FID":111,"stop_numbe":214,"stop_name":"W/S of 5th N of Moffitt","latitude":44.0602024,"longitude":-123.0194363,"routes":18}},{"type":"Feature","id":112,"geometry":{"type":"Point","coordinates":[-123.0193048,44.060125]},"properties":{"FID":112,"stop_numbe":215,"stop_name":"E/S of 5th N of Moffitt","latitude":44.060125,"longitude":-123.0193048,"routes":17}},{"type":"Feature","id":113,"geometry":{"type":"Point","coordinates":[-123.0193607,44.0573804]},"properties":{"FID":113,"stop_numbe":216,"stop_name":"E/S of 5th N of L","latitude":44.0573804,"longitude":-123.01936069999999,"routes":17}},{"type":"Feature","id":114,"geometry":{"type":"Point","coordinates":[-123.0194795,44.0573467]},"properties":{"FID":114,"stop_numbe":217,"stop_name":"W/S of 5th N of L","latitude":44.0573467,"longitude":-123.0194795,"routes":18}},{"type":"Feature","id":115,"geometry":{"type":"Point","coordinates":[-123.0195389,44.0559865]},"properties":{"FID":115,"stop_numbe":218,"stop_name":"W/S of 5th N of Broadway","latitude":44.0559865,"longitude":-123.0195389,"routes":18}},{"type":"Feature","id":116,"geometry":{"type":"Point","coordinates":[-123.0193544,44.0556169]},"properties":{"FID":116,"stop_numbe":219,"stop_name":"E/S of 5th S of Broadway","latitude":44.0556169,"longitude":-123.0193544,"routes":17}},{"type":"Feature","id":117,"geometry":{"type":"Point","coordinates":[-123.0195086,44.0520571]},"properties":{"FID":117,"stop_numbe":220,"stop_name":"W/S of 5th S of G","latitude":44.0520571,"longitude":-123.0195086,"routes":0}},{"type":"Feature","id":118,"geometry":{"type":"Point","coordinates":[-123.0194082,44.0526073]},"properties":{"FID":118,"stop_numbe":221,"stop_name":"E/S of 5th N of G","latitude":44.0526073,"longitude":-123.0194082,"routes":17}},{"type":"Feature","id":119,"geometry":{"type":"Point","coordinates":[-123.0194508,44.0508437]},"properties":{"FID":119,"stop_numbe":223,"stop_name":"E/S of 5th N of E","latitude":44.0508437,"longitude":-123.0194508,"routes":0}},{"type":"Feature","id":120,"geometry":{"type":"Point","coordinates":[-123.0183154,44.0562719]},"properties":{"FID":120,"stop_numbe":239,"stop_name":"S/S of Centennial W of 6th","latitude":44.0562719,"longitude":-123.0183154,"routes":13}},{"type":"Feature","id":121,"geometry":{"type":"Point","coordinates":[-122.9195838,44.0531408]},"properties":{"FID":121,"stop_numbe":241,"stop_name":"S/S of Thurston E of 61st","latitude":44.0531408,"longitude":-122.9195838,"routes":11}},{"type":"Feature","id":122,"geometry":{"type":"Point","coordinates":[-123.0279068,44.0572942]},"properties":{"FID":122,"stop_numbe":242,"stop_name":"N/S of Centennial W of Mill","latitude":44.0572942,"longitude":-123.0279068,"routes":13}},{"type":"Feature","id":123,"geometry":{"type":"Point","coordinates":[-123.0280262,44.0571783]},"properties":{"FID":123,"stop_numbe":243,"stop_name":"S/S of Centennial W of Mill","latitude":44.0571783,"longitude":-123.0280262,"routes":13}},{"type":"Feature","id":124,"geometry":{"type":"Point","coordinates":[-123.0301269,44.0572977]},"properties":{"FID":124,"stop_numbe":244,"stop_name":"N/S of Centennial W of Laura","latitude":44.0572977,"longitude":-123.0301269,"routes":13}},{"type":"Feature","id":125,"geometry":{"type":"Point","coordinates":[-123.0305912,44.0572042]},"properties":{"FID":125,"stop_numbe":245,"stop_name":"S/S of Centennial W of Laura","latitude":44.0572042,"longitude":-123.0305912,"routes":13}},{"type":"Feature","id":126,"geometry":{"type":"Point","coordinates":[-123.0005683,44.0444013]},"properties":{"FID":126,"stop_numbe":249,"stop_name":"S/S of South A W of 18th","latitude":44.0444013,"longitude":-123.0005683,"routes":11}},{"type":"Feature","id":127,"geometry":{"type":"Point","coordinates":[-123.0525009,44.0698702]},"properties":{"FID":127,"stop_numbe":250,"stop_name":"N/S of Harlow W of Garden Way","latitude":44.0698702,"longitude":-123.0525009,"routes":12}},{"type":"Feature","id":128,"geometry":{"type":"Point","coordinates":[-123.0514791,44.06973]},"properties":{"FID":128,"stop_numbe":251,"stop_name":"S/S of Harlow E of Garden Way","latitude":44.06973,"longitude":-123.0514791,"routes":12}},{"type":"Feature","id":129,"geometry":{"type":"Point","coordinates":[-123.0557739,44.0696672]},"properties":{"FID":129,"stop_numbe":252,"stop_name":"S/S of Harlow E of Honeysuckle","latitude":44.0696672,"longitude":-123.0557739,"routes":12}},{"type":"Feature","id":130,"geometry":{"type":"Point","coordinates":[-123.0560446,44.0697779]},"properties":{"FID":130,"stop_numbe":253,"stop_name":"N/S of Harlow W of Honeysuckle","latitude":44.0697779,"longitude":-123.0560446,"routes":12}},{"type":"Feature","id":131,"geometry":{"type":"Point","coordinates":[-123.0587835,44.069679]},"properties":{"FID":131,"stop_numbe":254,"stop_name":"N/S of Harlow W of Van Duyn","latitude":44.069679,"longitude":-123.0587835,"routes":12}},{"type":"Feature","id":132,"geometry":{"type":"Point","coordinates":[-123.0597933,44.069545]},"properties":{"FID":132,"stop_numbe":255,"stop_name":"S/S of Harlow E of Randall","latitude":44.069545,"longitude":-123.0597933,"routes":12}},{"type":"Feature","id":133,"geometry":{"type":"Point","coordinates":[-123.0623506,44.0696353]},"properties":{"FID":133,"stop_numbe":256,"stop_name":"N/S of Harlow W of Vincent","latitude":44.0696353,"longitude":-123.0623506,"routes":12}},{"type":"Feature","id":134,"geometry":{"type":"Point","coordinates":[-123.0641433,44.0694644]},"properties":{"FID":134,"stop_numbe":257,"stop_name":"S/S of Harlow W of Palomino","latitude":44.0694644,"longitude":-123.0641433,"routes":12}},{"type":"Feature","id":135,"geometry":{"type":"Point","coordinates":[-123.0647253,44.0693835]},"properties":{"FID":135,"stop_numbe":258,"stop_name":"N/S of Harlow E of Tomahawk","latitude":44.0693835,"longitude":-123.0647253,"routes":12}},{"type":"Feature","id":136,"geometry":{"type":"Point","coordinates":[-123.0674709,44.0694304]},"properties":{"FID":136,"stop_numbe":259,"stop_name":"S/S of Harlow E of Lydick","latitude":44.0694304,"longitude":-123.0674709,"routes":12}},{"type":"Feature","id":137,"geometry":{"type":"Point","coordinates":[-123.0679356,44.0696181]},"properties":{"FID":137,"stop_numbe":260,"stop_name":"N/S of Harlow W of Lydick","latitude":44.0696181,"longitude":-123.0679356,"routes":12}},{"type":"Feature","id":138,"geometry":{"type":"Point","coordinates":[-123.0782723,44.065681]},"properties":{"FID":138,"stop_numbe":261,"stop_name":"E/S of Oakway S of Westwood","latitude":44.065681,"longitude":-123.0782723,"routes":96}},{"type":"Feature","id":139,"geometry":{"type":"Point","coordinates":[-123.0784901,44.0692303]},"properties":{"FID":139,"stop_numbe":265,"stop_name":"E/S of Oakway N of Bedford","latitude":44.0692303,"longitude":-123.0784901,"routes":96}},{"type":"Feature","id":140,"geometry":{"type":"Point","coordinates":[-123.0786498,44.0689096]},"properties":{"FID":140,"stop_numbe":266,"stop_name":"W/S of Oakway S of Bedford","latitude":44.0689096,"longitude":-123.0786498,"routes":96}},{"type":"Feature","id":141,"geometry":{"type":"Point","coordinates":[-123.0786166,44.0709493]},"properties":{"FID":141,"stop_numbe":267,"stop_name":"W/S of Oakway S of St Andrews","latitude":44.0709493,"longitude":-123.0786166,"routes":96}},{"type":"Feature","id":142,"geometry":{"type":"Point","coordinates":[-123.0784453,44.0713308]},"properties":{"FID":142,"stop_numbe":268,"stop_name":"E/S of Oakway N of St Andrews","latitude":44.0713308,"longitude":-123.0784453,"routes":96}},{"type":"Feature","id":143,"geometry":{"type":"Point","coordinates":[-123.0784493,44.0731018]},"properties":{"FID":143,"stop_numbe":269,"stop_name":"E/S of Oakway S of Lariat","latitude":44.0731018,"longitude":-123.0784493,"routes":96}},{"type":"Feature","id":144,"geometry":{"type":"Point","coordinates":[-123.0786023,44.0732028]},"properties":{"FID":144,"stop_numbe":270,"stop_name":"W/S of Oakway S of Lariat","latitude":44.0732028,"longitude":-123.0786023,"routes":96}},{"type":"Feature","id":145,"geometry":{"type":"Point","coordinates":[-123.0784338,44.0747308]},"properties":{"FID":145,"stop_numbe":271,"stop_name":"E/S of Oakway S of Sandy","latitude":44.0747308,"longitude":-123.0784338,"routes":96}},{"type":"Feature","id":146,"geometry":{"type":"Point","coordinates":[-123.0785995,44.0748814]},"properties":{"FID":146,"stop_numbe":272,"stop_name":"W/S of Oakway N of Law","latitude":44.0748814,"longitude":-123.0785995,"routes":96}},{"type":"Feature","id":147,"geometry":{"type":"Point","coordinates":[-123.0785828,44.0765368]},"properties":{"FID":147,"stop_numbe":273,"stop_name":"W/S of Oakway S of Roland","latitude":44.0765368,"longitude":-123.0785828,"routes":96}},{"type":"Feature","id":148,"geometry":{"type":"Point","coordinates":[-123.0784041,44.0768141]},"properties":{"FID":148,"stop_numbe":274,"stop_name":"E/S of Oakway N of Roland","latitude":44.0768141,"longitude":-123.0784041,"routes":96}},{"type":"Feature","id":149,"geometry":{"type":"Point","coordinates":[-123.0684402,44.0929161]},"properties":{"FID":149,"stop_numbe":305,"stop_name":"S/S of Crescent W of Coburg Rd","latitude":44.0929161,"longitude":-123.0684402,"routes":66}},{"type":"Feature","id":150,"geometry":{"type":"Point","coordinates":[-123.0687435,44.0929749]},"properties":{"FID":150,"stop_numbe":306,"stop_name":"N/S of Crescent W of Coburg Rd","latitude":44.0929749,"longitude":-123.0687435,"routes":0}},{"type":"Feature","id":151,"geometry":{"type":"Point","coordinates":[-123.0722293,44.0929801]},"properties":{"FID":151,"stop_numbe":307,"stop_name":"N/S of Crescent E of Chuckanut","latitude":44.0929801,"longitude":-123.0722293,"routes":0}},{"type":"Feature","id":152,"geometry":{"type":"Point","coordinates":[-123.0723616,44.0928958]},"properties":{"FID":152,"stop_numbe":308,"stop_name":"S/S of Crescent E of Chuckanut","latitude":44.0928958,"longitude":-123.0723616,"routes":0}},{"type":"Feature","id":153,"geometry":{"type":"Point","coordinates":[-123.075557,44.0929841]},"properties":{"FID":153,"stop_numbe":309,"stop_name":"N/S of Crescent E of Sarah","latitude":44.0929841,"longitude":-123.075557,"routes":0}},{"type":"Feature","id":154,"geometry":{"type":"Point","coordinates":[-123.075699,44.0928706]},"properties":{"FID":154,"stop_numbe":310,"stop_name":"S/S of Crescent W of Gay","latitude":44.0928706,"longitude":-123.075699,"routes":0}},{"type":"Feature","id":155,"geometry":{"type":"Point","coordinates":[-123.0777618,44.0929836]},"properties":{"FID":155,"stop_numbe":311,"stop_name":"N/S of Crescent E of Coach","latitude":44.0929836,"longitude":-123.0777618,"routes":0}},{"type":"Feature","id":156,"geometry":{"type":"Point","coordinates":[-123.0779394,44.0928946]},"properties":{"FID":156,"stop_numbe":312,"stop_name":"S/S of Crescent E of Coach","latitude":44.0928946,"longitude":-123.0779394,"routes":0}},{"type":"Feature","id":157,"geometry":{"type":"Point","coordinates":[-123.0804617,44.0929975]},"properties":{"FID":157,"stop_numbe":313,"stop_name":"N/S of Crescent E of Gilham","latitude":44.0929975,"longitude":-123.0804617,"routes":67}},{"type":"Feature","id":158,"geometry":{"type":"Point","coordinates":[-123.0853384,44.0932946]},"properties":{"FID":158,"stop_numbe":315,"stop_name":"N/S of Crescent E of Tulip","latitude":44.0932946,"longitude":-123.0853384,"routes":67}},{"type":"Feature","id":159,"geometry":{"type":"Point","coordinates":[-123.0813411,44.0861298]},"properties":{"FID":159,"stop_numbe":318,"stop_name":"W/S of Gilham S of Brewer","latitude":44.0861298,"longitude":-123.0813411,"routes":96}},{"type":"Feature","id":160,"geometry":{"type":"Point","coordinates":[-123.0120768,44.0522482]},"properties":{"FID":160,"stop_numbe":322,"stop_name":"S/S of G E of 10th","latitude":44.0522482,"longitude":-123.0120768,"routes":18}},{"type":"Feature","id":161,"geometry":{"type":"Point","coordinates":[-123.0931139,44.0532947]},"properties":{"FID":161,"stop_numbe":323,"stop_name":"N/S of 6th W of Willamette","latitude":44.0532947,"longitude":-123.0931139,"routes":95}},{"type":"Feature","id":162,"geometry":{"type":"Point","coordinates":[-123.0821108,44.0354974]},"properties":{"FID":162,"stop_numbe":324,"stop_name":"E/S of Hilyard S of 22nd","latitude":44.0354974,"longitude":-123.0821108,"routes":0}},{"type":"Feature","id":163,"geometry":{"type":"Point","coordinates":[-123.0812488,44.0400649]},"properties":{"FID":163,"stop_numbe":328,"stop_name":"N/S of 18th W of Alder","latitude":44.0400649,"longitude":-123.0812488,"routes":28}},{"type":"Feature","id":164,"geometry":{"type":"Point","coordinates":[-123.0820304,44.0330412]},"properties":{"FID":164,"stop_numbe":339,"stop_name":"E/S of Hilyard S of 24th","latitude":44.0330412,"longitude":-123.0820304,"routes":0}},{"type":"Feature","id":165,"geometry":{"type":"Point","coordinates":[-123.0837436,44.0384138]},"properties":{"FID":165,"stop_numbe":351,"stop_name":"W/S of Patterson S of 19th","latitude":44.0384138,"longitude":-123.0837436,"routes":0}},{"type":"Feature","id":166,"geometry":{"type":"Point","coordinates":[-123.0837256,44.0356987]},"properties":{"FID":166,"stop_numbe":352,"stop_name":"W/S of Patterson N of 22nd","latitude":44.0356987,"longitude":-123.0837256,"routes":0}},{"type":"Feature","id":167,"geometry":{"type":"Point","coordinates":[-123.0816253,44.030747]},"properties":{"FID":167,"stop_numbe":353,"stop_name":"W/S of Hilyard N of 26th","latitude":44.030747,"longitude":-123.0816253,"routes":0}},{"type":"Feature","id":168,"geometry":{"type":"Point","coordinates":[-123.0815866,44.0280433]},"properties":{"FID":168,"stop_numbe":354,"stop_name":"W/S of Hilyard N of 28th","latitude":44.0280433,"longitude":-123.0815866,"routes":0}},{"type":"Feature","id":169,"geometry":{"type":"Point","coordinates":[-123.0817619,44.0236842]},"properties":{"FID":169,"stop_numbe":355,"stop_name":"W/S of Hilyard S of 30th","latitude":44.0236842,"longitude":-123.0817619,"routes":0}},{"type":"Feature","id":170,"geometry":{"type":"Point","coordinates":[-123.0816347,44.0186537]},"properties":{"FID":170,"stop_numbe":356,"stop_name":"W/S of Hilyard S of 34th","latitude":44.0186537,"longitude":-123.0816347,"routes":0}},{"type":"Feature","id":171,"geometry":{"type":"Point","coordinates":[-123.0820029,44.0166014]},"properties":{"FID":171,"stop_numbe":357,"stop_name":"W/S of Hilyard S of 36th","latitude":44.0166014,"longitude":-123.0820029,"routes":0}},{"type":"Feature","id":172,"geometry":{"type":"Point","coordinates":[-123.0789003,44.0157236]},"properties":{"FID":172,"stop_numbe":358,"stop_name":"W/S of W. Amazon S of 37th","latitude":44.0157236,"longitude":-123.0789003,"routes":0}},{"type":"Feature","id":173,"geometry":{"type":"Point","coordinates":[-123.0774805,44.0124568]},"properties":{"FID":173,"stop_numbe":359,"stop_name":"W/S of W. Amazon S of 39th Pl","latitude":44.0124568,"longitude":-123.0774805,"routes":0}},{"type":"Feature","id":174,"geometry":{"type":"Point","coordinates":[-123.0768646,44.0107869]},"properties":{"FID":174,"stop_numbe":360,"stop_name":"W/S of W. Amazon N of Fox Hollow","latitude":44.0107869,"longitude":-123.0768646,"routes":0}},{"type":"Feature","id":175,"geometry":{"type":"Point","coordinates":[-123.0760324,44.0081483]},"properties":{"FID":175,"stop_numbe":361,"stop_name":"W/S of W. Amazon N of 44th","latitude":44.0081483,"longitude":-123.0760324,"routes":0}},{"type":"Feature","id":176,"geometry":{"type":"Point","coordinates":[-123.0756034,44.0048219]},"properties":{"FID":176,"stop_numbe":363,"stop_name":"W/S of W. Amazon N of Larch","latitude":44.0048219,"longitude":-123.0756034,"routes":0}},{"type":"Feature","id":177,"geometry":{"type":"Point","coordinates":[-123.075733,44.0031448]},"properties":{"FID":177,"stop_numbe":364,"stop_name":"W/S of W. Amazon S of Snell","latitude":44.0031448,"longitude":-123.075733,"routes":0}},{"type":"Feature","id":178,"geometry":{"type":"Point","coordinates":[-123.0762716,44.0014288]},"properties":{"FID":178,"stop_numbe":365,"stop_name":"W/S of W. Amazon S of Sprague","latitude":44.0014288,"longitude":-123.0762716,"routes":0}},{"type":"Feature","id":179,"geometry":{"type":"Point","coordinates":[-123.0779836,43.9984255]},"properties":{"FID":179,"stop_numbe":366,"stop_name":"W/S of W. Amazon N of Martin","latitude":43.9984255,"longitude":-123.0779836,"routes":0}},{"type":"Feature","id":180,"geometry":{"type":"Point","coordinates":[-123.0752746,43.996682]},"properties":{"FID":180,"stop_numbe":367,"stop_name":"S/S of Martin W of Center","latitude":43.996682,"longitude":-123.0752746,"routes":0}},{"type":"Feature","id":181,"geometry":{"type":"Point","coordinates":[-123.0753405,43.9986385]},"properties":{"FID":181,"stop_numbe":368,"stop_name":"E/S of Center N of Alpine","latitude":43.9986385,"longitude":-123.0753405,"routes":0}},{"type":"Feature","id":182,"geometry":{"type":"Point","coordinates":[-123.0751181,44.0003277]},"properties":{"FID":182,"stop_numbe":369,"stop_name":"E/S of Center S of E. Amazon","latitude":44.0003277,"longitude":-123.0751181,"routes":0}},{"type":"Feature","id":183,"geometry":{"type":"Point","coordinates":[-123.0749174,44.0035892]},"properties":{"FID":183,"stop_numbe":370,"stop_name":"E/S of E. Amazon N of Snell","latitude":44.0035892,"longitude":-123.0749174,"routes":0}},{"type":"Feature","id":184,"geometry":{"type":"Point","coordinates":[-123.0751514,44.0063578]},"properties":{"FID":184,"stop_numbe":371,"stop_name":"E/S of E. Amazon N of Dillard","latitude":44.0063578,"longitude":-123.0751514,"routes":0}},{"type":"Feature","id":185,"geometry":{"type":"Point","coordinates":[-123.0754322,44.0081733]},"properties":{"FID":185,"stop_numbe":372,"stop_name":"E/S of E. Amazon N of Kincaid","latitude":44.0081733,"longitude":-123.0754322,"routes":0}},{"type":"Feature","id":186,"geometry":{"type":"Point","coordinates":[-123.0759368,44.0101287]},"properties":{"FID":186,"stop_numbe":373,"stop_name":"E/S of E. Amazon S of Potter","latitude":44.0101287,"longitude":-123.0759368,"routes":0}},{"type":"Feature","id":187,"geometry":{"type":"Point","coordinates":[-123.0768566,44.0126992]},"properties":{"FID":187,"stop_numbe":374,"stop_name":"E/S of E. Amazon S of 39th","latitude":44.0126992,"longitude":-123.0768566,"routes":0}},{"type":"Feature","id":188,"geometry":{"type":"Point","coordinates":[-123.0782814,44.0161328]},"properties":{"FID":188,"stop_numbe":375,"stop_name":"E/S of E. Amazon N of 37th","latitude":44.0161328,"longitude":-123.0782814,"routes":0}},{"type":"Feature","id":189,"geometry":{"type":"Point","coordinates":[-123.0796222,44.0186568]},"properties":{"FID":189,"stop_numbe":376,"stop_name":"E/S of E. Amazon N of 35th","latitude":44.0186568,"longitude":-123.0796222,"routes":0}},{"type":"Feature","id":190,"geometry":{"type":"Point","coordinates":[-123.0809278,44.0205619]},"properties":{"FID":190,"stop_numbe":377,"stop_name":"E/S of E. Amazon S of Hilyard","latitude":44.0205619,"longitude":-123.0809278,"routes":0}},{"type":"Feature","id":191,"geometry":{"type":"Point","coordinates":[-123.0814607,44.0273682]},"properties":{"FID":191,"stop_numbe":378,"stop_name":"E/S of Hilyard N of 28th","latitude":44.0273682,"longitude":-123.0814607,"routes":0}},{"type":"Feature","id":192,"geometry":{"type":"Point","coordinates":[-123.0821009,44.0391647]},"properties":{"FID":192,"stop_numbe":381,"stop_name":"E/S of Hilyard N of 19th","latitude":44.0391647,"longitude":-123.0821009,"routes":0}},{"type":"Feature","id":193,"geometry":{"type":"Point","coordinates":[-123.0820988,44.0405793]},"properties":{"FID":193,"stop_numbe":382,"stop_name":"E/S of Hilyard S of 17th","latitude":44.0405793,"longitude":-123.0820988,"routes":0}},{"type":"Feature","id":194,"geometry":{"type":"Point","coordinates":[-123.1618998,44.0382788]},"properties":{"FID":194,"stop_numbe":383,"stop_name":"S/S of 18th W of Four Oaks Grg","latitude":44.0382788,"longitude":-123.1618998,"routes":36}},{"type":"Feature","id":195,"geometry":{"type":"Point","coordinates":[-123.1590984,44.0391477]},"properties":{"FID":195,"stop_numbe":384,"stop_name":"N/S of 18th W of Langton","latitude":44.0391477,"longitude":-123.1590984,"routes":36}},{"type":"Feature","id":196,"geometry":{"type":"Point","coordinates":[-123.1590451,44.0390465]},"properties":{"FID":196,"stop_numbe":385,"stop_name":"E/S of 18th N of Churchill","latitude":44.0390465,"longitude":-123.1590451,"routes":36}},{"type":"Feature","id":197,"geometry":{"type":"Point","coordinates":[-123.1568903,44.040743]},"properties":{"FID":197,"stop_numbe":387,"stop_name":"N/S of 18th E of Josh","latitude":44.040743,"longitude":-123.1568903,"routes":36}},{"type":"Feature","id":198,"geometry":{"type":"Point","coordinates":[-123.1545003,44.0407394]},"properties":{"FID":198,"stop_numbe":388,"stop_name":"S/S of 18th W of Peppertree","latitude":44.0407394,"longitude":-123.1545003,"routes":36}},{"type":"Feature","id":199,"geometry":{"type":"Point","coordinates":[-123.1543597,44.0408322]},"properties":{"FID":199,"stop_numbe":389,"stop_name":"N/S of 18th E of Peppertree","latitude":44.0408322,"longitude":-123.1543597,"routes":36}},{"type":"Feature","id":200,"geometry":{"type":"Point","coordinates":[-123.1511103,44.0408156]},"properties":{"FID":200,"stop_numbe":391,"stop_name":"N/S of 18th 2nd stop W of Bailey Hill","latitude":44.0408156,"longitude":-123.1511103,"routes":36}},{"type":"Feature","id":201,"geometry":{"type":"Point","coordinates":[-123.1490727,44.0406726]},"properties":{"FID":201,"stop_numbe":392,"stop_name":"S/S of 18th 1st stop W of Bailey Hill","latitude":44.0406726,"longitude":-123.1490727,"routes":36}},{"type":"Feature","id":202,"geometry":{"type":"Point","coordinates":[-123.1487806,44.0407862]},"properties":{"FID":202,"stop_numbe":393,"stop_name":"N/S of 18th 1st stop W of Bailey Hill","latitude":44.0407862,"longitude":-123.1487806,"routes":36}},{"type":"Feature","id":203,"geometry":{"type":"Point","coordinates":[-123.1458276,44.0406622]},"properties":{"FID":203,"stop_numbe":394,"stop_name":"S/S of 18th W of Mistletoe","latitude":44.0406622,"longitude":-123.1458276,"routes":36}},{"type":"Feature","id":204,"geometry":{"type":"Point","coordinates":[-123.1459095,44.0407596]},"properties":{"FID":204,"stop_numbe":395,"stop_name":"N/S of 18th W of Mistletoe","latitude":44.0407596,"longitude":-123.1459095,"routes":36}},{"type":"Feature","id":205,"geometry":{"type":"Point","coordinates":[-123.1429204,44.0406252]},"properties":{"FID":205,"stop_numbe":396,"stop_name":"S/S of 18th E of Quaker","latitude":44.0406252,"longitude":-123.1429204,"routes":36}},{"type":"Feature","id":206,"geometry":{"type":"Point","coordinates":[-123.1436082,44.040739]},"properties":{"FID":206,"stop_numbe":397,"stop_name":"N/S of 18th W of Quaker","latitude":44.040739,"longitude":-123.1436082,"routes":36}},{"type":"Feature","id":207,"geometry":{"type":"Point","coordinates":[-123.1405591,44.0406581]},"properties":{"FID":207,"stop_numbe":398,"stop_name":"S/S of 18th W of Buck","latitude":44.0406581,"longitude":-123.1405591,"routes":36}},{"type":"Feature","id":208,"geometry":{"type":"Point","coordinates":[-123.1398529,44.0407093]},"properties":{"FID":208,"stop_numbe":399,"stop_name":"N/S of 18th W of Buck","latitude":44.0407093,"longitude":-123.1398529,"routes":36}},{"type":"Feature","id":209,"geometry":{"type":"Point","coordinates":[-123.1380313,44.0405773]},"properties":{"FID":209,"stop_numbe":400,"stop_name":"S/S of 18th E of Greiner","latitude":44.0405773,"longitude":-123.1380313,"routes":36}},{"type":"Feature","id":210,"geometry":{"type":"Point","coordinates":[-123.1360602,44.0412161]},"properties":{"FID":210,"stop_numbe":401,"stop_name":"N/S of 18th W of Oak Patch","latitude":44.0412161,"longitude":-123.1360602,"routes":36}},{"type":"Feature","id":211,"geometry":{"type":"Point","coordinates":[-123.1329869,44.0406192]},"properties":{"FID":211,"stop_numbe":403,"stop_name":"N/S of 18th W of Wilson","latitude":44.0406192,"longitude":-123.1329869,"routes":36}},{"type":"Feature","id":212,"geometry":{"type":"Point","coordinates":[-123.130523,44.0405126]},"properties":{"FID":212,"stop_numbe":404,"stop_name":"S/S of 18th W of McKinley","latitude":44.0405126,"longitude":-123.130523,"routes":36}},{"type":"Feature","id":213,"geometry":{"type":"Point","coordinates":[-123.1287057,44.0406203]},"properties":{"FID":213,"stop_numbe":406,"stop_name":"N/S of 18th W of City View","latitude":44.0406203,"longitude":-123.1287057,"routes":36}},{"type":"Feature","id":214,"geometry":{"type":"Point","coordinates":[-123.1265049,44.0404786]},"properties":{"FID":214,"stop_numbe":407,"stop_name":"S/S of 18th E of City View","latitude":44.0404786,"longitude":-123.1265049,"routes":36}},{"type":"Feature","id":215,"geometry":{"type":"Point","coordinates":[-123.1249989,44.0405651]},"properties":{"FID":215,"stop_numbe":408,"stop_name":"N/S of 18th W of Arthur","latitude":44.0405651,"longitude":-123.1249989,"routes":36}},{"type":"Feature","id":216,"geometry":{"type":"Point","coordinates":[-123.1236226,44.0404476]},"properties":{"FID":216,"stop_numbe":409,"stop_name":"S/S of 18th E of Arthur","latitude":44.0404476,"longitude":-123.1236226,"routes":36}},{"type":"Feature","id":217,"geometry":{"type":"Point","coordinates":[-123.1226867,44.0405421]},"properties":{"FID":217,"stop_numbe":410,"stop_name":"N/S of 18th E of Garfield","latitude":44.0405421,"longitude":-123.1226867,"routes":36}},{"type":"Feature","id":218,"geometry":{"type":"Point","coordinates":[-123.1207434,44.0405191]},"properties":{"FID":218,"stop_numbe":411,"stop_name":"N/S of 18th W of Grant","latitude":44.0405191,"longitude":-123.1207434,"routes":36}},{"type":"Feature","id":219,"geometry":{"type":"Point","coordinates":[-123.1204635,44.0404155]},"properties":{"FID":219,"stop_numbe":412,"stop_name":"S/S of 18th W of Grant","latitude":44.0404155,"longitude":-123.1204635,"routes":36}},{"type":"Feature","id":220,"geometry":{"type":"Point","coordinates":[-123.1169241,44.0403315]},"properties":{"FID":220,"stop_numbe":413,"stop_name":"S/S of 18th E of Chambers","latitude":44.0403315,"longitude":-123.1169241,"routes":36}},{"type":"Feature","id":221,"geometry":{"type":"Point","coordinates":[-123.1168906,44.0405063]},"properties":{"FID":221,"stop_numbe":414,"stop_name":"N/S of 18th E of Chambers","latitude":44.0405063,"longitude":-123.1168906,"routes":36}},{"type":"Feature","id":222,"geometry":{"type":"Point","coordinates":[-123.1132339,44.0404077]},"properties":{"FID":222,"stop_numbe":415,"stop_name":"N/S of 18th W of Polk","latitude":44.0404077,"longitude":-123.1132339,"routes":36}},{"type":"Feature","id":223,"geometry":{"type":"Point","coordinates":[-123.1115512,44.0402936]},"properties":{"FID":223,"stop_numbe":416,"stop_name":"S/S of 18th E of Polk","latitude":44.0402936,"longitude":-123.1115512,"routes":36}},{"type":"Feature","id":224,"geometry":{"type":"Point","coordinates":[-123.1098324,44.0403676]},"properties":{"FID":224,"stop_numbe":417,"stop_name":"N/S of 18th W of Van Buren","latitude":44.0403676,"longitude":-123.1098324,"routes":36}},{"type":"Feature","id":225,"geometry":{"type":"Point","coordinates":[-123.108377,44.0402573]},"properties":{"FID":225,"stop_numbe":418,"stop_name":"S/S of 18th W of Jackson","latitude":44.0402573,"longitude":-123.108377,"routes":36}},{"type":"Feature","id":226,"geometry":{"type":"Point","coordinates":[-123.1061556,44.0402326]},"properties":{"FID":226,"stop_numbe":419,"stop_name":"S/S of 18th W of Friendly","latitude":44.0402326,"longitude":-123.1061556,"routes":36}},{"type":"Feature","id":227,"geometry":{"type":"Point","coordinates":[-123.1062105,44.0403348]},"properties":{"FID":227,"stop_numbe":420,"stop_name":"N/S of 18th W of Friendly","latitude":44.0403348,"longitude":-123.1062105,"routes":36}},{"type":"Feature","id":228,"geometry":{"type":"Point","coordinates":[-123.1032558,44.0403417]},"properties":{"FID":228,"stop_numbe":421,"stop_name":"N/S of 18th W of Madison","latitude":44.0403417,"longitude":-123.1032558,"routes":36}},{"type":"Feature","id":229,"geometry":{"type":"Point","coordinates":[-123.1030827,44.0402387]},"properties":{"FID":229,"stop_numbe":422,"stop_name":"S/S of 18th W of Madison","latitude":44.0402387,"longitude":-123.1030827,"routes":36}},{"type":"Feature","id":230,"geometry":{"type":"Point","coordinates":[-123.1005966,44.0402381]},"properties":{"FID":230,"stop_numbe":423,"stop_name":"S/S of 18th E of Jefferson","latitude":44.0402381,"longitude":-123.1005966,"routes":36}},{"type":"Feature","id":231,"geometry":{"type":"Point","coordinates":[-123.1005066,44.0403368]},"properties":{"FID":231,"stop_numbe":424,"stop_name":"N/S of 18th E of Jefferson","latitude":44.0403368,"longitude":-123.1005066,"routes":36}},{"type":"Feature","id":232,"geometry":{"type":"Point","coordinates":[-123.0981416,44.0400722]},"properties":{"FID":232,"stop_numbe":425,"stop_name":"S/S of 18th E of Lawrence","latitude":44.0400722,"longitude":-123.0981416,"routes":36}},{"type":"Feature","id":233,"geometry":{"type":"Point","coordinates":[-123.097718,44.0401768]},"properties":{"FID":233,"stop_numbe":426,"stop_name":"N/S of 18th W of Lincoln","latitude":44.0401768,"longitude":-123.097718,"routes":36}},{"type":"Feature","id":234,"geometry":{"type":"Point","coordinates":[-123.0957936,44.0400122]},"properties":{"FID":234,"stop_numbe":427,"stop_name":"S/S of 18th W of Charnelton","latitude":44.0400122,"longitude":-123.0957936,"routes":36}},{"type":"Feature","id":235,"geometry":{"type":"Point","coordinates":[-123.0932372,44.0401214]},"properties":{"FID":235,"stop_numbe":428,"stop_name":"N/S of 18th W of Willamette","latitude":44.0401214,"longitude":-123.0932372,"routes":36}},{"type":"Feature","id":236,"geometry":{"type":"Point","coordinates":[-123.1173315,44.0330546]},"properties":{"FID":236,"stop_numbe":477,"stop_name":"S/S of 24th E of Chambers","latitude":44.0330546,"longitude":-123.1173315,"routes":33}},{"type":"Feature","id":237,"geometry":{"type":"Point","coordinates":[-123.1177166,44.0322403]},"properties":{"FID":237,"stop_numbe":478,"stop_name":"E/S of Chambers S of 25th","latitude":44.0322403,"longitude":-123.1177166,"routes":33}},{"type":"Feature","id":238,"geometry":{"type":"Point","coordinates":[-123.1177282,44.0300615]},"properties":{"FID":238,"stop_numbe":479,"stop_name":"E/S of Chambers S of North View","latitude":44.0300615,"longitude":-123.1177282,"routes":33}},{"type":"Feature","id":239,"geometry":{"type":"Point","coordinates":[-123.0928362,44.0443383]},"properties":{"FID":239,"stop_numbe":481,"stop_name":"W/S of Willamette S of 14th","latitude":44.0443383,"longitude":-123.0928362,"routes":0}},{"type":"Feature","id":240,"geometry":{"type":"Point","coordinates":[-123.0927543,44.0461103]},"properties":{"FID":240,"stop_numbe":482,"stop_name":"W/S of Willamette S of 12th","latitude":44.0461103,"longitude":-123.0927543,"routes":28}},{"type":"Feature","id":241,"geometry":{"type":"Point","coordinates":[-123.0928403,44.0419729]},"properties":{"FID":241,"stop_numbe":483,"stop_name":"W/S of Willamette S of 16th","latitude":44.0419729,"longitude":-123.0928403,"routes":0}},{"type":"Feature","id":242,"geometry":{"type":"Point","coordinates":[-123.0928922,44.0395465]},"properties":{"FID":242,"stop_numbe":484,"stop_name":"W/S of Willamette S of 18th","latitude":44.0395465,"longitude":-123.0928922,"routes":0}},{"type":"Feature","id":243,"geometry":{"type":"Point","coordinates":[-123.0921103,44.0371075]},"properties":{"FID":243,"stop_numbe":486,"stop_name":"E/S of Willamette S of 20th","latitude":44.0371075,"longitude":-123.0921103,"routes":0}},{"type":"Feature","id":244,"geometry":{"type":"Point","coordinates":[-123.0916835,44.0355665]},"properties":{"FID":244,"stop_numbe":487,"stop_name":"W/S of Willamette N of 22nd","latitude":44.0355665,"longitude":-123.0916835,"routes":0}},{"type":"Feature","id":245,"geometry":{"type":"Point","coordinates":[-123.0912471,44.0345832]},"properties":{"FID":245,"stop_numbe":488,"stop_name":"E/S of Willamette N of 23rd","latitude":44.0345832,"longitude":-123.0912471,"routes":0}},{"type":"Feature","id":246,"geometry":{"type":"Point","coordinates":[-123.0908486,44.033265]},"properties":{"FID":246,"stop_numbe":490,"stop_name":"W/S of Willamette S of 24th","latitude":44.033265,"longitude":-123.0908486,"routes":0}},{"type":"Feature","id":247,"geometry":{"type":"Point","coordinates":[-123.0906308,44.0316657]},"properties":{"FID":247,"stop_numbe":491,"stop_name":"E/S of Willamette N of 25th","latitude":44.0316657,"longitude":-123.0906308,"routes":0}},{"type":"Feature","id":248,"geometry":{"type":"Point","coordinates":[-123.0907867,44.0310515]},"properties":{"FID":248,"stop_numbe":492,"stop_name":"W/S of Willamette S of 25th","latitude":44.0310515,"longitude":-123.0907867,"routes":0}},{"type":"Feature","id":249,"geometry":{"type":"Point","coordinates":[-123.0906513,44.0296445]},"properties":{"FID":249,"stop_numbe":493,"stop_name":"E/S of Willamette N of 27th","latitude":44.0296445,"longitude":-123.0906513,"routes":0}},{"type":"Feature","id":250,"geometry":{"type":"Point","coordinates":[-123.0907768,44.0286486]},"properties":{"FID":250,"stop_numbe":494,"stop_name":"W/S of Willamette S of 27th","latitude":44.0286486,"longitude":-123.0907768,"routes":0}},{"type":"Feature","id":251,"geometry":{"type":"Point","coordinates":[-123.0907809,44.0272671]},"properties":{"FID":251,"stop_numbe":495,"stop_name":"W/S of Willamette N of 29th","latitude":44.0272671,"longitude":-123.0907809,"routes":0}},{"type":"Feature","id":252,"geometry":{"type":"Point","coordinates":[-123.0906537,44.0270371]},"properties":{"FID":252,"stop_numbe":496,"stop_name":"E/S of Willamette N of 29th","latitude":44.0270371,"longitude":-123.0906537,"routes":0}},{"type":"Feature","id":253,"geometry":{"type":"Point","coordinates":[-123.0907988,44.0257031]},"properties":{"FID":253,"stop_numbe":497,"stop_name":"W/S of Willamette S of 29th","latitude":44.0257031,"longitude":-123.0907988,"routes":24}},{"type":"Feature","id":254,"geometry":{"type":"Point","coordinates":[-123.0906573,44.024703]},"properties":{"FID":254,"stop_numbe":498,"stop_name":"E/S of Willamette N of 30th","latitude":44.024703,"longitude":-123.0906573,"routes":24}},{"type":"Feature","id":255,"geometry":{"type":"Point","coordinates":[-123.0907804,44.0242507]},"properties":{"FID":255,"stop_numbe":499,"stop_name":"W/S of Willamette N of 30th","latitude":44.0242507,"longitude":-123.0907804,"routes":24}},{"type":"Feature","id":256,"geometry":{"type":"Point","coordinates":[-123.0903626,44.0214484]},"properties":{"FID":256,"stop_numbe":501,"stop_name":"W/S of Donald N of 33rd","latitude":44.0214484,"longitude":-123.0903626,"routes":24}},{"type":"Feature","id":257,"geometry":{"type":"Point","coordinates":[-123.0897416,44.0193809]},"properties":{"FID":257,"stop_numbe":502,"stop_name":"W/S of Donald N of 34th","latitude":44.0193809,"longitude":-123.0897416,"routes":24}},{"type":"Feature","id":258,"geometry":{"type":"Point","coordinates":[-123.0888049,44.0170309]},"properties":{"FID":258,"stop_numbe":503,"stop_name":"W/S of Donald S of Pearl","latitude":44.0170309,"longitude":-123.0888049,"routes":24}},{"type":"Feature","id":259,"geometry":{"type":"Point","coordinates":[-123.0878073,44.0150196]},"properties":{"FID":259,"stop_numbe":504,"stop_name":"W/S of Donald S of 37th","latitude":44.0150196,"longitude":-123.0878073,"routes":24}},{"type":"Feature","id":260,"geometry":{"type":"Point","coordinates":[-123.087663,44.0130534]},"properties":{"FID":260,"stop_numbe":505,"stop_name":"W/S of Donald N of Mill","latitude":44.0130534,"longitude":-123.087663,"routes":24}},{"type":"Feature","id":261,"geometry":{"type":"Point","coordinates":[-123.0872836,44.0110377]},"properties":{"FID":261,"stop_numbe":506,"stop_name":"W/S of Donald S of 40th","latitude":44.0110377,"longitude":-123.0872836,"routes":24}},{"type":"Feature","id":262,"geometry":{"type":"Point","coordinates":[-123.0872806,44.0085471]},"properties":{"FID":262,"stop_numbe":507,"stop_name":"W/S of Donald N of 43rd","latitude":44.0085471,"longitude":-123.0872806,"routes":24}},{"type":"Feature","id":263,"geometry":{"type":"Point","coordinates":[-123.0887053,44.0063065]},"properties":{"FID":263,"stop_numbe":508,"stop_name":"W/S of Donald N of 46th","latitude":44.0063065,"longitude":-123.0887053,"routes":24}},{"type":"Feature","id":264,"geometry":{"type":"Point","coordinates":[-123.0828109,44.0041929]},"properties":{"FID":264,"stop_numbe":510,"stop_name":"S/S of 46th W of Fox Hollow","latitude":44.0041929,"longitude":-123.0828109,"routes":24}},{"type":"Feature","id":265,"geometry":{"type":"Point","coordinates":[-123.0838346,44.0017121]},"properties":{"FID":265,"stop_numbe":511,"stop_name":"W/S of Fox Hollow N of Princess","latitude":44.0017121,"longitude":-123.0838346,"routes":24}},{"type":"Feature","id":266,"geometry":{"type":"Point","coordinates":[-123.0844129,43.9992992]},"properties":{"FID":266,"stop_numbe":512,"stop_name":"W/S of Fox Hollow S of Princess","latitude":43.9992992,"longitude":-123.0844129,"routes":24}},{"type":"Feature","id":267,"geometry":{"type":"Point","coordinates":[-123.0855489,43.9979928]},"properties":{"FID":267,"stop_numbe":513,"stop_name":"W/S of Fox Hollow S of Saint Clair","latitude":43.9979928,"longitude":-123.0855489,"routes":24}},{"type":"Feature","id":268,"geometry":{"type":"Point","coordinates":[-123.0873373,43.9965945]},"properties":{"FID":268,"stop_numbe":514,"stop_name":"W/S of Fox Hollow N of Saratoga","latitude":43.9965945,"longitude":-123.0873373,"routes":24}},{"type":"Feature","id":269,"geometry":{"type":"Point","coordinates":[-123.0894413,43.995521]},"properties":{"FID":269,"stop_numbe":515,"stop_name":"N/S of Donald W of Fox Hollow","latitude":43.995521,"longitude":-123.0894413,"routes":24}},{"type":"Feature","id":270,"geometry":{"type":"Point","coordinates":[-123.0906436,43.9982329]},"properties":{"FID":270,"stop_numbe":516,"stop_name":"E/S of Donald S/O Cul deSac 5315-35","latitude":43.9982329,"longitude":-123.0906436,"routes":24}},{"type":"Feature","id":271,"geometry":{"type":"Point","coordinates":[-123.0904475,43.9993506]},"properties":{"FID":271,"stop_numbe":517,"stop_name":"E/S of Donald N of Cul deSac 5235-85","latitude":43.9993506,"longitude":-123.0904475,"routes":24}},{"type":"Feature","id":272,"geometry":{"type":"Point","coordinates":[-123.0901463,44.0016368]},"properties":{"FID":272,"stop_numbe":518,"stop_name":"E/S of Donald N of 50th","latitude":44.0016368,"longitude":-123.0901463,"routes":24}},{"type":"Feature","id":273,"geometry":{"type":"Point","coordinates":[-123.0898541,44.0033568]},"properties":{"FID":273,"stop_numbe":519,"stop_name":"E/S of Donald N of 49th","latitude":44.0033568,"longitude":-123.0898541,"routes":24}},{"type":"Feature","id":274,"geometry":{"type":"Point","coordinates":[-123.0886244,44.0062611]},"properties":{"FID":274,"stop_numbe":520,"stop_name":"E/S of Donald N of 46th","latitude":44.0062611,"longitude":-123.0886244,"routes":24}},{"type":"Feature","id":275,"geometry":{"type":"Point","coordinates":[-123.1137272,44.0574782]},"properties":{"FID":275,"stop_numbe":532,"stop_name":"S/S of 2nd E of Taylor","latitude":44.0574782,"longitude":-123.1137272,"routes":0}},{"type":"Feature","id":276,"geometry":{"type":"Point","coordinates":[-123.1146089,44.0575499]},"properties":{"FID":276,"stop_numbe":533,"stop_name":"N/S of 2nd W of Taylor","latitude":44.0575499,"longitude":-123.1146089,"routes":0}},{"type":"Feature","id":277,"geometry":{"type":"Point","coordinates":[-123.0546904,44.0557155]},"properties":{"FID":277,"stop_numbe":538,"stop_name":"N/S of MLK Blvd W of Garden Way","latitude":44.0557155,"longitude":-123.0546904,"routes":13}},{"type":"Feature","id":278,"geometry":{"type":"Point","coordinates":[-123.0532691,44.0556034]},"properties":{"FID":278,"stop_numbe":539,"stop_name":"S/S of MLK Blvd W of Lindley","latitude":44.0556034,"longitude":-123.0532691,"routes":13}},{"type":"Feature","id":279,"geometry":{"type":"Point","coordinates":[-123.0591463,44.0555528]},"properties":{"FID":279,"stop_numbe":540,"stop_name":"N/S of MLK Blvd E of Chevy Chase","latitude":44.0555528,"longitude":-123.0591463,"routes":13}},{"type":"Feature","id":280,"geometry":{"type":"Point","coordinates":[-123.0584374,44.0554471]},"properties":{"FID":280,"stop_numbe":541,"stop_name":"S/S of MLK Blvd E of Chevy Chase","latitude":44.0554471,"longitude":-123.0584374,"routes":0}},{"type":"Feature","id":281,"geometry":{"type":"Point","coordinates":[-123.0624116,44.0585768]},"properties":{"FID":281,"stop_numbe":542,"stop_name":"N/S of MLK Blvd W of Kinsrow","latitude":44.0585768,"longitude":-123.0624116,"routes":0}},{"type":"Feature","id":282,"geometry":{"type":"Point","coordinates":[-123.0623298,44.0577581]},"properties":{"FID":282,"stop_numbe":543,"stop_name":"W/S of MLK Blvd S of Kinsrow","latitude":44.0577581,"longitude":-123.0623298,"routes":0}},{"type":"Feature","id":283,"geometry":{"type":"Point","coordinates":[-123.0674778,44.0600916]},"properties":{"FID":283,"stop_numbe":544,"stop_name":"N/S of MLK Blvd at Serbu Center","latitude":44.0600916,"longitude":-123.0674778,"routes":0}},{"type":"Feature","id":284,"geometry":{"type":"Point","coordinates":[-123.0670708,44.0599293]},"properties":{"FID":284,"stop_numbe":545,"stop_name":"S/S of MLK Blvd at Serbu Center","latitude":44.0599293,"longitude":-123.0670708,"routes":0}},{"type":"Feature","id":285,"geometry":{"type":"Point","coordinates":[-123.0705686,44.0598044]},"properties":{"FID":285,"stop_numbe":546,"stop_name":"S/S of MLK Blvd Eof Scout Access","latitude":44.0598044,"longitude":-123.0705686,"routes":13}},{"type":"Feature","id":286,"geometry":{"type":"Point","coordinates":[-123.0708048,44.0599942]},"properties":{"FID":286,"stop_numbe":547,"stop_name":"N/S of MLK Blvd W of Scout Access","latitude":44.0599942,"longitude":-123.0708048,"routes":13}},{"type":"Feature","id":287,"geometry":{"type":"Point","coordinates":[-123.0764908,44.0597542]},"properties":{"FID":287,"stop_numbe":548,"stop_name":"N/S of MLK Blvd E of Centennial Lp","latitude":44.0597542,"longitude":-123.0764908,"routes":13}},{"type":"Feature","id":288,"geometry":{"type":"Point","coordinates":[-123.0755651,44.0596386]},"properties":{"FID":288,"stop_numbe":549,"stop_name":"S/S of MLK Blvd E of Centennial Lp","latitude":44.0596386,"longitude":-123.0755651,"routes":13}},{"type":"Feature","id":289,"geometry":{"type":"Point","coordinates":[-123.0821816,44.0597966]},"properties":{"FID":289,"stop_numbe":550,"stop_name":"E/S of Coburg S of MLK Blvd","latitude":44.0597966,"longitude":-123.0821816,"routes":0}},{"type":"Feature","id":290,"geometry":{"type":"Point","coordinates":[-123.0769939,44.0643005]},"properties":{"FID":290,"stop_numbe":551,"stop_name":"W/S of Coburg N of Oakway","latitude":44.0643005,"longitude":-123.0769939,"routes":0}},{"type":"Feature","id":291,"geometry":{"type":"Point","coordinates":[-123.074534,44.0656352]},"properties":{"FID":291,"stop_numbe":552,"stop_name":"W/S of Coburg S of Oakmont","latitude":44.0656352,"longitude":-123.074534,"routes":0}},{"type":"Feature","id":292,"geometry":{"type":"Point","coordinates":[-123.0720583,44.067284]},"properties":{"FID":292,"stop_numbe":553,"stop_name":"E/S of Coburg N of Rustic","latitude":44.067284,"longitude":-123.0720583,"routes":0}},{"type":"Feature","id":293,"geometry":{"type":"Point","coordinates":[-123.0721791,44.0675383]},"properties":{"FID":293,"stop_numbe":554,"stop_name":"W/S of Coburg S of Frontier","latitude":44.0675383,"longitude":-123.0721791,"routes":0}},{"type":"Feature","id":294,"geometry":{"type":"Point","coordinates":[-123.0706165,44.0687841]},"properties":{"FID":294,"stop_numbe":555,"stop_name":"E/S of Coburg N of Pioneer Pike","latitude":44.0687841,"longitude":-123.0706165,"routes":0}},{"type":"Feature","id":295,"geometry":{"type":"Point","coordinates":[-123.0710697,44.0685484]},"properties":{"FID":295,"stop_numbe":556,"stop_name":"W/S of Coburg S of Pioneer Pike","latitude":44.0685484,"longitude":-123.0710697,"routes":0}},{"type":"Feature","id":296,"geometry":{"type":"Point","coordinates":[-123.0694094,44.0716577]},"properties":{"FID":296,"stop_numbe":557,"stop_name":"E/S of Coburg N of Tomahawk","latitude":44.0716577,"longitude":-123.0694094,"routes":67}},{"type":"Feature","id":297,"geometry":{"type":"Point","coordinates":[-123.0696325,44.0714743]},"properties":{"FID":297,"stop_numbe":558,"stop_name":"W/S of Coburg S of Tomahawk","latitude":44.0714743,"longitude":-123.0696325,"routes":66}},{"type":"Feature","id":298,"geometry":{"type":"Point","coordinates":[-123.0696166,44.0725908]},"properties":{"FID":298,"stop_numbe":559,"stop_name":"W/S of Coburg S of Tandy Turn","latitude":44.0725908,"longitude":-123.0696166,"routes":66}},{"type":"Feature","id":299,"geometry":{"type":"Point","coordinates":[-123.069379,44.0736631]},"properties":{"FID":299,"stop_numbe":560,"stop_name":"E/S of Coburg N of Tandy Turn","latitude":44.0736631,"longitude":-123.069379,"routes":67}},{"type":"Feature","id":300,"geometry":{"type":"Point","coordinates":[-123.0693466,44.0753193]},"properties":{"FID":300,"stop_numbe":561,"stop_name":"E/S of Coburg S of Bailey","latitude":44.0753193,"longitude":-123.0693466,"routes":67}},{"type":"Feature","id":301,"geometry":{"type":"Point","coordinates":[-123.0695948,44.0757805]},"properties":{"FID":301,"stop_numbe":562,"stop_name":"W/S of Coburg S of Bailey","latitude":44.0757805,"longitude":-123.0695948,"routes":66}},{"type":"Feature","id":302,"geometry":{"type":"Point","coordinates":[-123.0687683,44.0782849]},"properties":{"FID":302,"stop_numbe":563,"stop_name":"E/S of Coburg N of Cal Young","latitude":44.0782849,"longitude":-123.0687683,"routes":67}},{"type":"Feature","id":303,"geometry":{"type":"Point","coordinates":[-123.0689124,44.0786029]},"properties":{"FID":303,"stop_numbe":564,"stop_name":"W/S of Coburg N of Cal Young","latitude":44.0786029,"longitude":-123.0689124,"routes":66}},{"type":"Feature","id":304,"geometry":{"type":"Point","coordinates":[-123.0679743,44.0795855]},"properties":{"FID":304,"stop_numbe":565,"stop_name":"E/S of Coburg S of Willakenzie","latitude":44.0795855,"longitude":-123.0679743,"routes":67}},{"type":"Feature","id":305,"geometry":{"type":"Point","coordinates":[-123.0673727,44.0813751]},"properties":{"FID":305,"stop_numbe":566,"stop_name":"E/S of Coburg N of Willakenzie","latitude":44.0813751,"longitude":-123.0673727,"routes":67}},{"type":"Feature","id":306,"geometry":{"type":"Point","coordinates":[-123.0676086,44.0811617]},"properties":{"FID":306,"stop_numbe":567,"stop_name":"W/S of Coburg N of Willakenzie","latitude":44.0811617,"longitude":-123.0676086,"routes":66}},{"type":"Feature","id":307,"geometry":{"type":"Point","coordinates":[-123.0674704,44.0837387]},"properties":{"FID":307,"stop_numbe":568,"stop_name":"E/S of Coburg S of Adkins","latitude":44.0837387,"longitude":-123.0674704,"routes":67}},{"type":"Feature","id":308,"geometry":{"type":"Point","coordinates":[-123.06776,44.0853863]},"properties":{"FID":308,"stop_numbe":569,"stop_name":"W/S of Coburg N of Elysium","latitude":44.0853863,"longitude":-123.06776,"routes":66}},{"type":"Feature","id":309,"geometry":{"type":"Point","coordinates":[-123.0675424,44.0860826]},"properties":{"FID":309,"stop_numbe":570,"stop_name":"E/S of Coburg S of Beltline","latitude":44.0860826,"longitude":-123.0675424,"routes":67}},{"type":"Feature","id":310,"geometry":{"type":"Point","coordinates":[-123.0934734,44.0932348]},"properties":{"FID":310,"stop_numbe":575,"stop_name":"S/S of Green Acres W of Applewood","latitude":44.0932348,"longitude":-123.0934734,"routes":66}},{"type":"Feature","id":311,"geometry":{"type":"Point","coordinates":[-123.0923505,44.0932941]},"properties":{"FID":311,"stop_numbe":576,"stop_name":"N/S of Green Acres E of Applewood","latitude":44.0932941,"longitude":-123.0923505,"routes":67}},{"type":"Feature","id":312,"geometry":{"type":"Point","coordinates":[-123.0897896,44.0928423]},"properties":{"FID":312,"stop_numbe":577,"stop_name":"S/S of Green Acres W of Balboa","latitude":44.0928423,"longitude":-123.0897896,"routes":66}},{"type":"Feature","id":313,"geometry":{"type":"Point","coordinates":[-123.0879231,44.0928941]},"properties":{"FID":313,"stop_numbe":579,"stop_name":"N/S of Green Acres W of Norkenzie","latitude":44.0928941,"longitude":-123.0879231,"routes":67}},{"type":"Feature","id":314,"geometry":{"type":"Point","coordinates":[-123.1073417,44.0868306]},"properties":{"FID":314,"stop_numbe":594,"stop_name":"N/S of Goodpstre Is W of Goodpstre Lp","latitude":44.0868306,"longitude":-123.1073417,"routes":67}},{"type":"Feature","id":315,"geometry":{"type":"Point","coordinates":[-123.1063973,44.0867324]},"properties":{"FID":315,"stop_numbe":595,"stop_name":"S/S of Goodpstre Is E of Goodpstre Lp","latitude":44.0867324,"longitude":-123.1063973,"routes":66}},{"type":"Feature","id":316,"geometry":{"type":"Point","coordinates":[-123.1095076,44.0862799]},"properties":{"FID":316,"stop_numbe":596,"stop_name":"N/S of Goodpstre Is W of James","latitude":44.0862799,"longitude":-123.1095076,"routes":67}},{"type":"Feature","id":317,"geometry":{"type":"Point","coordinates":[-123.1112078,44.0844642]},"properties":{"FID":317,"stop_numbe":597,"stop_name":"W/S of Goodpstre Is N of Kingsley","latitude":44.0844642,"longitude":-123.1112078,"routes":67}},{"type":"Feature","id":318,"geometry":{"type":"Point","coordinates":[-123.1110282,44.0843931]},"properties":{"FID":318,"stop_numbe":598,"stop_name":"E/S of Goodpstre Is N of Kingsley","latitude":44.0843931,"longitude":-123.1110282,"routes":66}},{"type":"Feature","id":319,"geometry":{"type":"Point","coordinates":[-123.1117136,44.0804101]},"properties":{"FID":319,"stop_numbe":599,"stop_name":"W/S of Goodpstre Is Sof Wimbledon","latitude":44.0804101,"longitude":-123.1117136,"routes":67}},{"type":"Feature","id":320,"geometry":{"type":"Point","coordinates":[-123.1082066,44.073045]},"properties":{"FID":320,"stop_numbe":601,"stop_name":"W/S of Goodpstre Is S of 1355 GPI","latitude":44.073045,"longitude":-123.1082066,"routes":67}},{"type":"Feature","id":321,"geometry":{"type":"Point","coordinates":[-123.1079544,44.0736926]},"properties":{"FID":321,"stop_numbe":602,"stop_name":"E/S of Goodpstre Is Sof DeltaVillage","latitude":44.0736926,"longitude":-123.1079544,"routes":66}},{"type":"Feature","id":322,"geometry":{"type":"Point","coordinates":[-123.1079516,44.0714262]},"properties":{"FID":322,"stop_numbe":603,"stop_name":"E/S of Goodpstre Isl (1st stop N of VRDr)","latitude":44.0714262,"longitude":-123.1079516,"routes":66}},{"type":"Feature","id":323,"geometry":{"type":"Point","coordinates":[-123.1081653,44.0717216]},"properties":{"FID":323,"stop_numbe":604,"stop_name":"W/S of Goodpstre Is N of VRDr","latitude":44.0717216,"longitude":-123.1081653,"routes":67}},{"type":"Feature","id":324,"geometry":{"type":"Point","coordinates":[-123.1032174,44.0683667]},"properties":{"FID":324,"stop_numbe":605,"stop_name":"W/S of VR Way S of VR Dr","latitude":44.0683667,"longitude":-123.1032174,"routes":66}},{"type":"Feature","id":325,"geometry":{"type":"Point","coordinates":[-123.1030669,44.0657293]},"properties":{"FID":325,"stop_numbe":606,"stop_name":"W/S of VR Way S of VR Inn","latitude":44.0657293,"longitude":-123.1030669,"routes":66}},{"type":"Feature","id":326,"geometry":{"type":"Point","coordinates":[-123.1065073,44.067104]},"properties":{"FID":326,"stop_numbe":607,"stop_name":"VRC Sta, Bay B--outbound","latitude":44.067104,"longitude":-123.1065073,"routes":66}},{"type":"Feature","id":327,"geometry":{"type":"Point","coordinates":[-123.0810551,44.0817221]},"properties":{"FID":327,"stop_numbe":627,"stop_name":"W/S of Gilham N of Myers","latitude":44.0817221,"longitude":-123.0810551,"routes":96}},{"type":"Feature","id":328,"geometry":{"type":"Point","coordinates":[-123.0809388,44.0816991]},"properties":{"FID":328,"stop_numbe":628,"stop_name":"E/S of Gilham S of Marlow","latitude":44.0816991,"longitude":-123.0809388,"routes":96}},{"type":"Feature","id":329,"geometry":{"type":"Point","coordinates":[-123.08094,44.0804311]},"properties":{"FID":329,"stop_numbe":629,"stop_name":"E/S of Gilham N of Carmel","latitude":44.0804311,"longitude":-123.08094,"routes":96}},{"type":"Feature","id":330,"geometry":{"type":"Point","coordinates":[-123.0810763,44.0798541]},"properties":{"FID":330,"stop_numbe":630,"stop_name":"W/S of Gilham S of Carmel","latitude":44.0798541,"longitude":-123.0810763,"routes":96}},{"type":"Feature","id":331,"geometry":{"type":"Point","coordinates":[-123.0799855,44.0775188]},"properties":{"FID":331,"stop_numbe":631,"stop_name":"S/S of Cal Young E of Gilham","latitude":44.0775188,"longitude":-123.0799855,"routes":96}},{"type":"Feature","id":332,"geometry":{"type":"Point","coordinates":[-123.0799723,44.0776226]},"properties":{"FID":332,"stop_numbe":632,"stop_name":"N/S of Cal Young E of Gilham","latitude":44.0776226,"longitude":-123.0799723,"routes":96}},{"type":"Feature","id":333,"geometry":{"type":"Point","coordinates":[-123.1359576,44.1155961]},"properties":{"FID":333,"stop_numbe":638,"stop_name":"S/S of Wilkes E of River Rd","latitude":44.1155961,"longitude":-123.1359576,"routes":51}},{"type":"Feature","id":334,"geometry":{"type":"Point","coordinates":[-123.1320749,44.1153534]},"properties":{"FID":334,"stop_numbe":639,"stop_name":"S/S of Wilkes W of Tempa","latitude":44.1153534,"longitude":-123.1320749,"routes":51}},{"type":"Feature","id":335,"geometry":{"type":"Point","coordinates":[-123.1303295,44.1172358]},"properties":{"FID":335,"stop_numbe":640,"stop_name":"E/S of Scenic S of Dean","latitude":44.1172358,"longitude":-123.1303295,"routes":51}},{"type":"Feature","id":336,"geometry":{"type":"Point","coordinates":[-123.1305208,44.1202763]},"properties":{"FID":336,"stop_numbe":641,"stop_name":"E/S of Scenic N of River Lp","latitude":44.1202763,"longitude":-123.1305208,"routes":51}},{"type":"Feature","id":337,"geometry":{"type":"Point","coordinates":[-123.130494,44.1237371]},"properties":{"FID":337,"stop_numbe":643,"stop_name":"E/S of Scenic N of Warrington","latitude":44.1237371,"longitude":-123.130494,"routes":51}},{"type":"Feature","id":338,"geometry":{"type":"Point","coordinates":[-123.1343095,44.1243261]},"properties":{"FID":338,"stop_numbe":644,"stop_name":"N/S of Spring Crk E of Shannon","latitude":44.1243261,"longitude":-123.1343095,"routes":51}},{"type":"Feature","id":339,"geometry":{"type":"Point","coordinates":[-123.136413,44.1242847]},"properties":{"FID":339,"stop_numbe":645,"stop_name":"N/S of Spring Crk W of Scottdale","latitude":44.1242847,"longitude":-123.136413,"routes":51}},{"type":"Feature","id":340,"geometry":{"type":"Point","coordinates":[-123.1407862,44.1235142]},"properties":{"FID":340,"stop_numbe":646,"stop_name":"W/S of River Rd S of Spring Creek","latitude":44.1235142,"longitude":-123.1407862,"routes":51}},{"type":"Feature","id":341,"geometry":{"type":"Point","coordinates":[-123.1396098,44.1212652]},"properties":{"FID":341,"stop_numbe":647,"stop_name":"W/S of River Rd S of Lynnbrook","latitude":44.1212652,"longitude":-123.1396098,"routes":51}},{"type":"Feature","id":342,"geometry":{"type":"Point","coordinates":[-123.1382908,44.1183105]},"properties":{"FID":342,"stop_numbe":648,"stop_name":"W/S of River Rd S of Dean","latitude":44.1183105,"longitude":-123.1382908,"routes":51}},{"type":"Feature","id":343,"geometry":{"type":"Point","coordinates":[-123.1366405,44.1151592]},"properties":{"FID":343,"stop_numbe":649,"stop_name":"W/S of River Rd S of Irvington","latitude":44.1151592,"longitude":-123.1366405,"routes":51}},{"type":"Feature","id":344,"geometry":{"type":"Point","coordinates":[-123.1359483,44.1133453]},"properties":{"FID":344,"stop_numbe":650,"stop_name":"W/S of River Rd N of Blackfoot","latitude":44.1133453,"longitude":-123.1359483,"routes":51}},{"type":"Feature","id":345,"geometry":{"type":"Point","coordinates":[-123.1357238,44.1135663]},"properties":{"FID":345,"stop_numbe":651,"stop_name":"E/S of River Rd S of Anchor","latitude":44.1135663,"longitude":-123.1357238,"routes":0}},{"type":"Feature","id":346,"geometry":{"type":"Point","coordinates":[-123.1349756,44.1112218]},"properties":{"FID":346,"stop_numbe":652,"stop_name":"W/S of River Rd S of Blazer","latitude":44.1112218,"longitude":-123.1349756,"routes":51}},{"type":"Feature","id":347,"geometry":{"type":"Point","coordinates":[-123.1347503,44.1113939]},"properties":{"FID":347,"stop_numbe":653,"stop_name":"E/S of River Rd N of Wedgewood","latitude":44.1113939,"longitude":-123.1347503,"routes":0}},{"type":"Feature","id":348,"geometry":{"type":"Point","coordinates":[-123.1336815,44.1083754]},"properties":{"FID":348,"stop_numbe":654,"stop_name":"W/S of River Rd S of Ferndale","latitude":44.1083754,"longitude":-123.1336815,"routes":51}},{"type":"Feature","id":349,"geometry":{"type":"Point","coordinates":[-123.1338119,44.1094205]},"properties":{"FID":349,"stop_numbe":655,"stop_name":"E/S of River Rd N of River Lp1","latitude":44.1094205,"longitude":-123.1338119,"routes":0}},{"type":"Feature","id":350,"geometry":{"type":"Point","coordinates":[-123.1326093,44.1066656]},"properties":{"FID":350,"stop_numbe":656,"stop_name":"E/S of River Rd S of Banton","latitude":44.1066656,"longitude":-123.1326093,"routes":0}},{"type":"Feature","id":351,"geometry":{"type":"Point","coordinates":[-123.132581,44.1059455]},"properties":{"FID":351,"stop_numbe":657,"stop_name":"W/S of River Rd S of Myoak","latitude":44.1059455,"longitude":-123.132581,"routes":51}},{"type":"Feature","id":352,"geometry":{"type":"Point","coordinates":[-123.1320105,44.1052979]},"properties":{"FID":352,"stop_numbe":658,"stop_name":"E/S of River Rd N of Azalea","latitude":44.1052979,"longitude":-123.1320105,"routes":0}},{"type":"Feature","id":353,"geometry":{"type":"Point","coordinates":[-123.1317392,44.1039788]},"properties":{"FID":353,"stop_numbe":659,"stop_name":"W/S of River Rd N of Irving","latitude":44.1039788,"longitude":-123.1317392,"routes":51}},{"type":"Feature","id":354,"geometry":{"type":"Point","coordinates":[-123.132533,44.1033896]},"properties":{"FID":354,"stop_numbe":660,"stop_name":"S/S of Irving E of Belmont","latitude":44.1033896,"longitude":-123.132533,"routes":52}},{"type":"Feature","id":355,"geometry":{"type":"Point","coordinates":[-123.1399163,44.1034123]},"properties":{"FID":355,"stop_numbe":664,"stop_name":"S/S of Irving E of Dover","latitude":44.1034123,"longitude":-123.1399163,"routes":52}},{"type":"Feature","id":356,"geometry":{"type":"Point","coordinates":[-123.1434121,44.103373]},"properties":{"FID":356,"stop_numbe":666,"stop_name":"S/S of Irving W of Stratford","latitude":44.103373,"longitude":-123.1434121,"routes":52}},{"type":"Feature","id":357,"geometry":{"type":"Point","coordinates":[-123.1468943,44.1034159]},"properties":{"FID":357,"stop_numbe":678,"stop_name":"S/S of Irving W of Stark","latitude":44.1034159,"longitude":-123.1468943,"routes":52}},{"type":"Feature","id":358,"geometry":{"type":"Point","coordinates":[-123.1303258,44.1006544]},"properties":{"FID":358,"stop_numbe":681,"stop_name":"W/S of River Rd N of Santa Clara","latitude":44.1006544,"longitude":-123.1303258,"routes":0}},{"type":"Feature","id":359,"geometry":{"type":"Point","coordinates":[-123.1372289,44.0955454]},"properties":{"FID":359,"stop_numbe":689,"stop_name":"S/S of Silver E of Sterling West","latitude":44.0955454,"longitude":-123.1372289,"routes":55}},{"type":"Feature","id":360,"geometry":{"type":"Point","coordinates":[-123.1382896,44.0900789]},"properties":{"FID":360,"stop_numbe":695,"stop_name":"E/S of Grove S of Maxwell","latitude":44.0900789,"longitude":-123.1382896,"routes":55}},{"type":"Feature","id":361,"geometry":{"type":"Point","coordinates":[-123.1260772,44.0912521]},"properties":{"FID":361,"stop_numbe":700,"stop_name":"E/S of River Rd S of Hamilton","latitude":44.0912521,"longitude":-123.1260772,"routes":0}},{"type":"Feature","id":362,"geometry":{"type":"Point","coordinates":[-123.1257522,44.0900319]},"properties":{"FID":362,"stop_numbe":701,"stop_name":"W/S of River Rd S of Maxwell","latitude":44.0900319,"longitude":-123.1257522,"routes":0}},{"type":"Feature","id":363,"geometry":{"type":"Point","coordinates":[-123.1266612,44.0928644]},"properties":{"FID":363,"stop_numbe":702,"stop_name":"E/S of River Rd S of Corliss","latitude":44.0928644,"longitude":-123.1266612,"routes":0}},{"type":"Feature","id":364,"geometry":{"type":"Point","coordinates":[-123.1266836,44.0920795]},"properties":{"FID":364,"stop_numbe":703,"stop_name":"W/S of River Rd S of Kourt","latitude":44.0920795,"longitude":-123.1266836,"routes":0}},{"type":"Feature","id":365,"geometry":{"type":"Point","coordinates":[-123.1279884,44.0960931]},"properties":{"FID":365,"stop_numbe":704,"stop_name":"(RRS) E/S River Rd N of River Ave (on-street)","latitude":44.0960931,"longitude":-123.1279884,"routes":0}},{"type":"Feature","id":366,"geometry":{"type":"Point","coordinates":[-123.1278328,44.0947125]},"properties":{"FID":366,"stop_numbe":705,"stop_name":"W/S of River Rd S of Silver","latitude":44.0947125,"longitude":-123.1278328,"routes":0}},{"type":"Feature","id":367,"geometry":{"type":"Point","coordinates":[-123.1436385,44.0880384]},"properties":{"FID":367,"stop_numbe":713,"stop_name":"S/S of Howard E of Park","latitude":44.0880384,"longitude":-123.1436385,"routes":55}},{"type":"Feature","id":368,"geometry":{"type":"Point","coordinates":[-123.1407689,44.0880078]},"properties":{"FID":368,"stop_numbe":715,"stop_name":"S/S of Howard W of Maywood","latitude":44.0880078,"longitude":-123.1407689,"routes":55}},{"type":"Feature","id":369,"geometry":{"type":"Point","coordinates":[-123.1387571,44.088]},"properties":{"FID":369,"stop_numbe":717,"stop_name":"S/S of Howard W of Grove","latitude":44.088,"longitude":-123.1387571,"routes":55}},{"type":"Feature","id":370,"geometry":{"type":"Point","coordinates":[-123.1379456,44.0781261]},"properties":{"FID":370,"stop_numbe":735,"stop_name":"W/S of N Park Ave N of Beebe","latitude":44.0781261,"longitude":-123.1379456,"routes":55}},{"type":"Feature","id":371,"geometry":{"type":"Point","coordinates":[-123.1379063,44.0777778]},"properties":{"FID":371,"stop_numbe":736,"stop_name":"E/S of Park S of Beebe","latitude":44.0777778,"longitude":-123.1379063,"routes":55}},{"type":"Feature","id":372,"geometry":{"type":"Point","coordinates":[-123.1328621,44.0741824]},"properties":{"FID":372,"stop_numbe":737,"stop_name":"S/S of N Park Ave E of Filbert","latitude":44.0741824,"longitude":-123.1328621,"routes":55}},{"type":"Feature","id":373,"geometry":{"type":"Point","coordinates":[-123.1332143,44.0742341]},"properties":{"FID":373,"stop_numbe":738,"stop_name":"N/S of Park W of Filbert","latitude":44.0742341,"longitude":-123.1332143,"routes":55}},{"type":"Feature","id":374,"geometry":{"type":"Point","coordinates":[-123.1291364,44.0742609]},"properties":{"FID":374,"stop_numbe":739,"stop_name":"S/S of Park E of Chestnut","latitude":44.0742609,"longitude":-123.1291364,"routes":55}},{"type":"Feature","id":375,"geometry":{"type":"Point","coordinates":[-123.1295127,44.0742966]},"properties":{"FID":375,"stop_numbe":740,"stop_name":"N/S of Park W of Park Terrace","latitude":44.0742966,"longitude":-123.1295127,"routes":55}},{"type":"Feature","id":376,"geometry":{"type":"Point","coordinates":[-123.1264996,44.0743299]},"properties":{"FID":376,"stop_numbe":741,"stop_name":"S/S of Park E of Meriau","latitude":44.0743299,"longitude":-123.1264996,"routes":55}},{"type":"Feature","id":377,"geometry":{"type":"Point","coordinates":[-123.1266682,44.0743621]},"properties":{"FID":377,"stop_numbe":742,"stop_name":"N/S of Park E of Meriau","latitude":44.0743621,"longitude":-123.1266682,"routes":55}},{"type":"Feature","id":378,"geometry":{"type":"Point","coordinates":[-123.1228887,44.0743966]},"properties":{"FID":378,"stop_numbe":743,"stop_name":"S/S of Park E of Mayfair","latitude":44.0743966,"longitude":-123.1228887,"routes":55}},{"type":"Feature","id":379,"geometry":{"type":"Point","coordinates":[-123.1247275,44.0743973]},"properties":{"FID":379,"stop_numbe":744,"stop_name":"N/S of Park E of Mayfair","latitude":44.0743973,"longitude":-123.1247275,"routes":55}},{"type":"Feature","id":380,"geometry":{"type":"Point","coordinates":[-123.1200366,44.0745308]},"properties":{"FID":380,"stop_numbe":745,"stop_name":"N/S of Park W of River Rd","latitude":44.0745308,"longitude":-123.1200366,"routes":55}},{"type":"Feature","id":381,"geometry":{"type":"Point","coordinates":[-123.1578007,44.0845633]},"properties":{"FID":381,"stop_numbe":746,"stop_name":"N/S of Barger W of Century","latitude":44.0845633,"longitude":-123.1578007,"routes":41}},{"type":"Feature","id":382,"geometry":{"type":"Point","coordinates":[-123.1565682,44.0844463]},"properties":{"FID":382,"stop_numbe":747,"stop_name":"S/S of Barger W of Empire Park","latitude":44.0844463,"longitude":-123.1565682,"routes":41}},{"type":"Feature","id":383,"geometry":{"type":"Point","coordinates":[-123.1613891,44.0845826]},"properties":{"FID":383,"stop_numbe":748,"stop_name":"N/S of Barger W of Clarey","latitude":44.0845826,"longitude":-123.1613891,"routes":0}},{"type":"Feature","id":384,"geometry":{"type":"Point","coordinates":[-123.1600153,44.0844521]},"properties":{"FID":384,"stop_numbe":749,"stop_name":"S/S of Barger E of Taney","latitude":44.0844521,"longitude":-123.1600153,"routes":41}},{"type":"Feature","id":385,"geometry":{"type":"Point","coordinates":[-123.1637031,44.0845941]},"properties":{"FID":385,"stop_numbe":750,"stop_name":"N/S of Barger E of Altimont","latitude":44.0845941,"longitude":-123.1637031,"routes":0}},{"type":"Feature","id":386,"geometry":{"type":"Point","coordinates":[-123.1688337,44.0847443]},"properties":{"FID":386,"stop_numbe":752,"stop_name":"N/S of Barger W of Echo Hollow","latitude":44.0847443,"longitude":-123.1688337,"routes":41}},{"type":"Feature","id":387,"geometry":{"type":"Point","coordinates":[-123.1724871,44.0844024]},"properties":{"FID":387,"stop_numbe":753,"stop_name":"S/S of Barger W/S Beltline","latitude":44.0844024,"longitude":-123.1724871,"routes":41}},{"type":"Feature","id":388,"geometry":{"type":"Point","coordinates":[-123.1738758,44.0846665]},"properties":{"FID":388,"stop_numbe":754,"stop_name":"N/S of Barger E of Laurelhurst","latitude":44.0846665,"longitude":-123.1738758,"routes":41}},{"type":"Feature","id":389,"geometry":{"type":"Point","coordinates":[-123.1778441,44.0846384]},"properties":{"FID":389,"stop_numbe":756,"stop_name":"N/S of Barger W of Golden Gardens","latitude":44.0846384,"longitude":-123.1778441,"routes":41}},{"type":"Feature","id":390,"geometry":{"type":"Point","coordinates":[-123.1774896,44.0845298]},"properties":{"FID":390,"stop_numbe":757,"stop_name":"S/S of Barger W of Golden Gardens","latitude":44.0845298,"longitude":-123.1774896,"routes":41}},{"type":"Feature","id":391,"geometry":{"type":"Point","coordinates":[-123.1821642,44.0846571]},"properties":{"FID":391,"stop_numbe":758,"stop_name":"N/S of Barger E of E Irwin Way","latitude":44.0846571,"longitude":-123.1821642,"routes":41}},{"type":"Feature","id":392,"geometry":{"type":"Point","coordinates":[-123.1806595,44.0845391]},"properties":{"FID":392,"stop_numbe":759,"stop_name":"S/S of Barger E of Devos","latitude":44.0845391,"longitude":-123.1806595,"routes":41}},{"type":"Feature","id":393,"geometry":{"type":"Point","coordinates":[-123.1831462,44.0845451]},"properties":{"FID":393,"stop_numbe":761,"stop_name":"S/S of Barger W of East Irwin","latitude":44.0845451,"longitude":-123.1831462,"routes":41}},{"type":"Feature","id":394,"geometry":{"type":"Point","coordinates":[-123.1857163,44.0846656]},"properties":{"FID":394,"stop_numbe":762,"stop_name":"N/S of Barger W of West Irwin","latitude":44.0846656,"longitude":-123.1857163,"routes":41}},{"type":"Feature","id":395,"geometry":{"type":"Point","coordinates":[-123.1858682,44.0845604]},"properties":{"FID":395,"stop_numbe":763,"stop_name":"S/S of Barger W of West Irwin","latitude":44.0845604,"longitude":-123.1858682,"routes":41}},{"type":"Feature","id":396,"geometry":{"type":"Point","coordinates":[-123.1875821,44.0845741]},"properties":{"FID":396,"stop_numbe":765,"stop_name":"S/S of Barger E of Terry","latitude":44.0845741,"longitude":-123.1875821,"routes":41}},{"type":"Feature","id":397,"geometry":{"type":"Point","coordinates":[-123.1680512,44.0824027]},"properties":{"FID":397,"stop_numbe":778,"stop_name":"E/S of Echo Hollow S of Dove","latitude":44.0824027,"longitude":-123.1680512,"routes":40}},{"type":"Feature","id":398,"geometry":{"type":"Point","coordinates":[-123.1681852,44.0830284]},"properties":{"FID":398,"stop_numbe":779,"stop_name":"W/S of Echo Hollow S of Barger","latitude":44.0830284,"longitude":-123.1681852,"routes":40}},{"type":"Feature","id":399,"geometry":{"type":"Point","coordinates":[-123.168056,44.0799028]},"properties":{"FID":399,"stop_numbe":780,"stop_name":"E/S of Echo Hollow N of Murnane","latitude":44.0799028,"longitude":-123.168056,"routes":40}},{"type":"Feature","id":400,"geometry":{"type":"Point","coordinates":[-123.1681208,44.0799523]},"properties":{"FID":400,"stop_numbe":781,"stop_name":"W/S of Echo Hollow N of Murnane","latitude":44.0799523,"longitude":-123.1681208,"routes":40}},{"type":"Feature","id":401,"geometry":{"type":"Point","coordinates":[-123.168048,44.078447]},"properties":{"FID":401,"stop_numbe":782,"stop_name":"E/S of Echo Hollow N of Willhi","latitude":44.078447,"longitude":-123.168048,"routes":40}},{"type":"Feature","id":402,"geometry":{"type":"Point","coordinates":[-123.1681814,44.0779405]},"properties":{"FID":402,"stop_numbe":783,"stop_name":"W/S of Echo Hollow S of Willhi","latitude":44.0779405,"longitude":-123.1681814,"routes":40}},{"type":"Feature","id":403,"geometry":{"type":"Point","coordinates":[-123.1680381,44.0750201]},"properties":{"FID":403,"stop_numbe":786,"stop_name":"E/S of Echo Hollow N of Sean","latitude":44.0750201,"longitude":-123.1680381,"routes":40}},{"type":"Feature","id":404,"geometry":{"type":"Point","coordinates":[-123.1681773,44.0748058]},"properties":{"FID":404,"stop_numbe":787,"stop_name":"W/S of Echo Hollow S of Sean","latitude":44.0748058,"longitude":-123.1681773,"routes":40}},{"type":"Feature","id":405,"geometry":{"type":"Point","coordinates":[-123.1506133,44.076002]},"properties":{"FID":405,"stop_numbe":799,"stop_name":"W/S of Jacobs S of Concord","latitude":44.076002,"longitude":-123.1506133,"routes":41}},{"type":"Feature","id":406,"geometry":{"type":"Point","coordinates":[-123.1492957,44.0739158]},"properties":{"FID":406,"stop_numbe":801,"stop_name":"S/S of Jacobs W of Fairfield","latitude":44.0739158,"longitude":-123.1492957,"routes":41}},{"type":"Feature","id":407,"geometry":{"type":"Point","coordinates":[-123.1445471,44.0701425]},"properties":{"FID":407,"stop_numbe":802,"stop_name":"N/S of Royal W of Bon Vue","latitude":44.0701425,"longitude":-123.1445471,"routes":41}},{"type":"Feature","id":408,"geometry":{"type":"Point","coordinates":[-123.1451598,44.0700539]},"properties":{"FID":408,"stop_numbe":803,"stop_name":"S/S of Royal E of Wide Site","latitude":44.0700539,"longitude":-123.1451598,"routes":41}},{"type":"Feature","id":409,"geometry":{"type":"Point","coordinates":[-123.1469599,44.0701566]},"properties":{"FID":409,"stop_numbe":804,"stop_name":"N/S of Royal W of Jerry","latitude":44.0701566,"longitude":-123.1469599,"routes":41}},{"type":"Feature","id":410,"geometry":{"type":"Point","coordinates":[-123.1483518,44.0700633]},"properties":{"FID":410,"stop_numbe":805,"stop_name":"S/S of Royal E of Fairfield","latitude":44.0700633,"longitude":-123.1483518,"routes":41}},{"type":"Feature","id":411,"geometry":{"type":"Point","coordinates":[-123.1631668,44.0688274]},"properties":{"FID":411,"stop_numbe":814,"stop_name":"W/S of Bertelsen N of Bell","latitude":44.0688274,"longitude":-123.1631668,"routes":40}},{"type":"Feature","id":412,"geometry":{"type":"Point","coordinates":[-123.1652649,44.0700078]},"properties":{"FID":412,"stop_numbe":815,"stop_name":"N/S of Royal E of Ruskin","latitude":44.0700078,"longitude":-123.1652649,"routes":40}},{"type":"Feature","id":413,"geometry":{"type":"Point","coordinates":[-123.1670801,44.0699137]},"properties":{"FID":413,"stop_numbe":816,"stop_name":"S/S of Royal W of Ruskin","latitude":44.0699137,"longitude":-123.1670801,"routes":40}},{"type":"Feature","id":414,"geometry":{"type":"Point","coordinates":[-123.1799632,44.070104]},"properties":{"FID":414,"stop_numbe":825,"stop_name":"N/S of Royal E of Candlelight","latitude":44.070104,"longitude":-123.1799632,"routes":41}},{"type":"Feature","id":415,"geometry":{"type":"Point","coordinates":[-123.1790396,44.0699518]},"properties":{"FID":415,"stop_numbe":826,"stop_name":"S/S of Royal W of Danebo","latitude":44.0699518,"longitude":-123.1790396,"routes":41}},{"type":"Feature","id":416,"geometry":{"type":"Point","coordinates":[-123.1833302,44.0701248]},"properties":{"FID":416,"stop_numbe":827,"stop_name":"N/S of Royal E of Royal Oak Dr","latitude":44.0701248,"longitude":-123.1833302,"routes":41}},{"type":"Feature","id":417,"geometry":{"type":"Point","coordinates":[-123.1830875,44.0700086]},"properties":{"FID":417,"stop_numbe":828,"stop_name":"S/S of Royal E of Royal Oak Dr","latitude":44.0700086,"longitude":-123.1830875,"routes":41}},{"type":"Feature","id":418,"geometry":{"type":"Point","coordinates":[-123.1869234,44.0701518]},"properties":{"FID":418,"stop_numbe":829,"stop_name":"N/S of Royal E of Driftwood","latitude":44.0701518,"longitude":-123.1869234,"routes":41}},{"type":"Feature","id":419,"geometry":{"type":"Point","coordinates":[-123.1870569,44.0700243]},"properties":{"FID":419,"stop_numbe":830,"stop_name":"S/S of Royal W of Driftwood","latitude":44.0700243,"longitude":-123.1870569,"routes":41}},{"type":"Feature","id":420,"geometry":{"type":"Point","coordinates":[-123.1881681,44.0722168]},"properties":{"FID":420,"stop_numbe":831,"stop_name":"E/S of Terry N of Royal","latitude":44.0722168,"longitude":-123.1881681,"routes":41}},{"type":"Feature","id":421,"geometry":{"type":"Point","coordinates":[-123.1881528,44.0749725]},"properties":{"FID":421,"stop_numbe":832,"stop_name":"E/S of Terry N of Daneland","latitude":44.0749725,"longitude":-123.1881528,"routes":41}},{"type":"Feature","id":422,"geometry":{"type":"Point","coordinates":[-123.1629961,44.0687101]},